GeoUID,Region.Name,provincename,min_longitude,max_longitude,min_latitude,max_latitude
1001101,"Division No.  1, Subd. V (SNO)",Newfoundland and Labrador,-53.6508,-53.0045,46.6111,46.9979
1001105,Portugal Cove South (T),Newfoundland and Labrador,-53.2618,-53.2498,46.7011,46.717
1001113,Trepassey (T),Newfoundland and Labrador,-53.4166,-53.3158,46.6885,46.7835
1001120,St. Shott's (T),Newfoundland and Labrador,-53.5952,-53.5755,46.6289,46.6392
1001124,"Division No.  1, Subd. U (SNO)",Newfoundland and Labrador,-53.2651,-52.7789,46.7561,47.2894
1001126,Cape Broyle (T),Newfoundland and Labrador,-52.9688,-52.9076,47.0714,47.1143
1001131,Renews-Cappahayden (T),Newfoundland and Labrador,-53.0442,-52.899,46.8163,46.9668
1001136,Fermeuse (T),Newfoundland and Labrador,-53.0444,-52.8923,46.9349,46.9999
1001140,Port Kirwan (T),Newfoundland and Labrador,-52.9469,-52.8897,46.9622,46.9942
1001144,Aquaforte (T),Newfoundland and Labrador,-52.9839,-52.9045,47.0054,47.0224
1001149,Ferryland (T),Newfoundland and Labrador,-52.9512,-52.8549,47.007,47.0486
1001155,"Division No.  1, Subd. W (SNO)",Newfoundland and Labrador,-53.7235,-53.095,46.7771,47.3279
1001169,St. Vincent's-St. Stephen's-Peter's River (T),Newfoundland and Labrador,-53.6642,-53.4895,46.7012,46.8355
1001174,Gaskiers-Point La Haye (T),Newfoundland and Labrador,-53.651,-53.557,46.8351,46.9063
1001178,St. Mary's (T),Newfoundland and Labrador,-53.6155,-53.4628,46.8871,46.9422
1001181,Riverhead (T),Newfoundland and Labrador,-53.5769,-53.4098,46.9304,47.0614
1001186,Admirals Beach (T),Newfoundland and Labrador,-53.655,-53.5415,46.9823,47.0423
1001192,St. Joseph's (T),Newfoundland and Labrador,-53.5901,-53.4557,47.0604,47.122
1001197,Mount Carmel-Mitchells Brook-St. Catherine's (T),Newfoundland and Labrador,-53.5533,-53.3372,47.1259,47.2481
1001203,"Division No.  1, Subd. X (SNO)",Newfoundland and Labrador,-53.7508,-53.3268,47.0341,47.4329
1001207,Colinet (T),Newfoundland and Labrador,-53.5731,-53.5306,47.203,47.2356
1001214,"Division No.  1, Subd. C (SNO)",Newfoundland and Labrador,-54.2017,-53.7329,46.8021,47.1777
1001219,Branch (T),Newfoundland and Labrador,-54.018,-53.894,46.8637,46.9027
1001225,Point Lance (T),Newfoundland and Labrador,-54.1355,-54.0379,46.7891,46.8484
1001228,St. Bride's (T),Newfoundland and Labrador,-54.1912,-54.1569,46.9068,46.9424
1001234,"Division No.  1, Subd. B (SNO)",Newfoundland and Labrador,-54.0619,-53.6618,47.1479,47.4341
1001240,Placentia (T),Newfoundland and Labrador,-54.0071,-53.7939,47.2095,47.3191
1001254,Fox Harbour (T),Newfoundland and Labrador,-53.9522,-53.8242,47.3012,47.3359
1001259,"Division No.  1, Subd. A (SNO)",Newfoundland and Labrador,-54.0841,-53.658,47.3567,47.9585
1001263,Long Harbour-Mount Arlington Heights (T),Newfoundland and Labrador,-53.87,-53.7149,47.4166,47.4804
1001267,Southern Harbour (T),Newfoundland and Labrador,-53.9789,-53.9291,47.7048,47.7348
1001270,Arnold's Cove (T),Newfoundland and Labrador,-54.0142,-53.9582,47.7511,47.7882
1001274,Come By Chance (T),Newfoundland and Labrador,-54.0478,-53.9492,47.7708,47.9002
1001277,Sunnyside (T),Newfoundland and Labrador,-53.9609,-53.8646,47.8326,47.908
1001281,Chance Cove (T),Newfoundland and Labrador,-53.86,-53.7924,47.6431,47.7022
1001285,Norman's Cove-Long Cove (T),Newfoundland and Labrador,-53.7211,-53.6518,47.5381,47.6018
1001289,Chapel Arm (T),Newfoundland and Labrador,-53.7137,-53.6185,47.4628,47.5399
1001293,"Division No.  1, Subd. Y (SNO)",Newfoundland and Labrador,-53.6782,-53.3781,47.372,47.5812
1001298,Whitbourne (T),Newfoundland and Labrador,-53.5862,-53.5048,47.4024,47.4525
1001304,"Division No.  1, Subd. E (SNO)",Newfoundland and Labrador,-53.5733,-53.3138,47.5267,47.8078
1001308,Whiteway (T),Newfoundland and Labrador,-53.5053,-53.4059,47.662,47.7136
1001312,Heart's Delight-Islington (T),Newfoundland and Labrador,-53.507,-53.4061,47.7485,47.798
1001316,Heart's Desire (T),Newfoundland and Labrador,-53.4693,-53.3833,47.7973,47.8495
1001321,"Division No.  1, Subd. F (SNO)",Newfoundland and Labrador,-53.3842,-53.0354,47.7828,48.0639
1001325,Heart's Content (T),Newfoundland and Labrador,-53.4354,-53.2913,47.8083,47.8907
1001328,New Perlican (T),Newfoundland and Labrador,-53.3876,-53.2691,47.8872,47.9259
1001332,Winterton (T),Newfoundland and Labrador,-53.3508,-53.276,47.941,47.9697
1001335,Hant's Harbour (T),Newfoundland and Labrador,-53.3306,-53.2338,47.9577,48.0294
1001339,"Division No.  1, Subd. G (SNO)",Newfoundland and Labrador,-53.2718,-52.7891,47.7982,48.1752
1001343,Old Perlican (T),Newfoundland and Labrador,-53.0214,-52.9715,48.0592,48.118
1001347,Bay de Verde (T),Newfoundland and Labrador,-52.9267,-52.849,48.0777,48.1159
1001352,Small Point-Adam's Cove-Blackhead-Broad Cove (T),Newfoundland and Labrador,-53.1981,-53.0736,47.8256,47.8703
1001357,"Division No.  1, Subd. H (SNO)",Newfoundland and Labrador,-53.3383,-53.1267,47.7336,47.8169
1001361,Salmon Cove (T),Newfoundland and Labrador,-53.1986,-53.1477,47.7695,47.7899
1001365,Victoria (T),Newfoundland and Labrador,-53.2718,-53.184,47.7522,47.7909
1001370,Carbonear (T),Newfoundland and Labrador,-53.274,-53.1849,47.7149,47.7478
1001374,"Division No.  1, Subd. I (SNO)",Newfoundland and Labrador,-53.3964,-53.1439,47.6438,47.7402
1001375,Bryant's Cove (T),Newfoundland and Labrador,-53.2144,-53.1644,47.662,47.6983
1001379,Harbour Grace (T),Newfoundland and Labrador,-53.3157,-53.1667,47.6433,47.7204
1001385,Upper Island Cove (T),Newfoundland and Labrador,-53.2632,-53.1906,47.6326,47.6665
1001391,"Division No.  1, Subd. J (SNO)",Newfoundland and Labrador,-53.269,-53.2534,47.638,47.6464
1001394,Bishop's Cove (T),Newfoundland and Labrador,-53.2528,-53.2117,47.629,47.6435
1001396,Spaniard's Bay (T),Newfoundland and Labrador,-53.4075,-53.2457,47.5581,47.6568
1001405,"Division No.  1, Subd. K (SNO)",Newfoundland and Labrador,-53.4811,-53.3028,47.4599,47.5781
1001409,Bay Roberts (T),Newfoundland and Labrador,-53.3428,-53.1993,47.5499,47.6224
1001415,"Division No.  1, Subd. L (SNO)",Newfoundland and Labrador,-53.3135,-53.1744,47.5503,47.6121
1001421,"Division No.  1, Subd. M (SNO)",Newfoundland and Labrador,-53.5105,-53.2403,47.3747,47.5358
1001426,North River (T),Newfoundland and Labrador,-53.3382,-53.2826,47.5228,47.5604
1001429,Clarke's Beach (T),Newfoundland and Labrador,-53.3407,-53.2625,47.5092,47.5648
1001434,South River (T),Newfoundland and Labrador,-53.2953,-53.2381,47.5083,47.5572
1001437,Cupids (T),Newfoundland and Labrador,-53.2658,-53.1841,47.5189,47.5731
1001441,"Division No.  1, Subd. N (SNO)",Newfoundland and Labrador,-53.274,-53.1795,47.4651,47.5372
1001446,Brigus (T),Newfoundland and Labrador,-53.2604,-53.1805,47.5127,47.5613
1001452,"Division No.  1, Subd. O (SNO)",Newfoundland and Labrador,-53.3647,-53.1961,47.2816,47.5048
1001456,Colliers (T),Newfoundland and Labrador,-53.3043,-53.169,47.407,47.5087
1001461,Conception Harbour (T),Newfoundland and Labrador,-53.2971,-53.1606,47.3915,47.5088
1001464,Avondale (T),Newfoundland and Labrador,-53.2738,-53.1765,47.3582,47.4464
1001469,Harbour Main-Chapel's Cove-Lakeview (T),Newfoundland and Labrador,-53.2293,-53.127,47.3582,47.4642
1001472,Holyrood (T),Newfoundland and Labrador,-53.2459,-53.0698,47.2686,47.4567
1001485,Conception Bay South (T),Newfoundland and Labrador,-53.0967,-52.9101,47.4336,47.5534
1001490,"Division No.  1, Subd. R (SNO)",Newfoundland and Labrador,-53.0291,-52.9411,47.5387,47.6342
1001494,Wabana (T),Newfoundland and Labrador,-52.997,-52.91,47.6205,47.658
1001504,Portugal Cove-St. Philip's (T),Newfoundland and Labrador,-52.8965,-52.7822,47.5579,47.6924
1001505,Pouch Cove (T),Newfoundland and Labrador,-52.8306,-52.7087,47.6852,47.81
1001507,Flatrock (T),Newfoundland and Labrador,-52.7903,-52.6949,47.6778,47.7335
1001509,Torbay (T),Newfoundland and Labrador,-52.7964,-52.7031,47.6256,47.6966
1001511,Logy Bay-Middle Cove-Outer Cove (T),Newfoundland and Labrador,-52.7249,-52.652,47.611,47.6658
1001512,Bauline (T),Newfoundland and Labrador,-52.8502,-52.7937,47.6711,47.7302
1001517,Paradise (T),Newfoundland and Labrador,-52.9247,-52.8218,47.5021,47.584
1001519,St. John's (CY),Newfoundland and Labrador,-53.0379,-52.6194,47.3308,47.634
1001542,Mount Pearl (CY),Newfoundland and Labrador,-52.8544,-52.7737,47.4969,47.5404
1001551,Petty Harbour-Maddox Cove (T),Newfoundland and Labrador,-52.7241,-52.6883,47.4591,47.4822
1001557,Bay Bulls (T),Newfoundland and Labrador,-52.8409,-52.7387,47.2873,47.3592
1001559,Witless Bay (T),Newfoundland and Labrador,-52.8558,-52.7663,47.2442,47.31
1001565,"Division No.  1, Subd. D (SNO)",Newfoundland and Labrador,-53.1476,-52.6634,47.2539,47.8034
1002001,"Division No.  2, Subd. E (SNO)",Newfoundland and Labrador,-55.3402,-55.1186,46.9232,47.1524
1002002,Lewin's Cove (T),Newfoundland and Labrador,-55.2324,-55.2015,47.0689,47.1124
1002005,Burin (T),Newfoundland and Labrador,-55.2324,-55.0992,47.0076,47.1143
1002006,"Division No.  2, Subd. F (SNO)",Newfoundland and Labrador,-55.4936,-55.2605,46.8718,47.1199
1002008,St. Lawrence (T),Newfoundland and Labrador,-55.4423,-55.3468,46.872,46.9367
1002009,"Division No.  2, Subd. G (SNO)",Newfoundland and Labrador,-55.9308,-55.405,46.8432,47.0709
1002011,Lawn (T),Newfoundland and Labrador,-55.5538,-55.5265,46.9165,46.955
1002012,Lamaline (T),Newfoundland and Labrador,-55.8836,-55.6671,46.8429,46.9683
1002013,Lord's Cove (T),Newfoundland and Labrador,-55.7008,-55.6007,46.8621,46.9211
1002014,Point May (T),Newfoundland and Labrador,-55.9891,-55.866,46.8828,47.0136
1002015,Point au Gaul (T),Newfoundland and Labrador,-55.7728,-55.7332,46.8479,46.8768
1002016,"Division No.  2, Subd. H (SNO)",Newfoundland and Labrador,-55.9126,-55.369,46.9698,47.1431
1002017,Frenchman's Cove (T),Newfoundland and Labrador,-55.4956,-55.3552,47.1131,47.2236
1002018,Fortune (T),Newfoundland and Labrador,-55.9443,-55.7869,46.9929,47.0893
1002019,Grand Bank (T),Newfoundland and Labrador,-55.7991,-55.7064,47.0738,47.1103
1002021,Garnish (T),Newfoundland and Labrador,-55.3863,-55.2668,47.168,47.2651
1002022,"Division No.  2, Subd. D (SNO)",Newfoundland and Labrador,-55.1693,-55.0159,47.0763,47.2197
1002023,Winterland (T),Newfoundland and Labrador,-55.3864,-55.2386,47.1131,47.1948
1002024,Marystown (T),Newfoundland and Labrador,-55.2425,-55.0881,47.1127,47.2197
1002025,Fox Cove-Mortier (T),Newfoundland and Labrador,-55.1413,-55.0698,47.0668,47.1394
1002026,"Division No.  2, Subd. I (SNO)",Newfoundland and Labrador,-55.3339,-54.6384,47.229,47.6429
1002027,Bay L'Argent (T),Newfoundland and Labrador,-54.9104,-54.8608,47.5316,47.5518
1002029,"Division No.  2, Subd. J (SNO)",Newfoundland and Labrador,-55.0866,-54.5965,47.5847,47.808
1002030,Grand le Pierre (T),Newfoundland and Labrador,-54.8772,-54.7418,47.6509,47.8633
1002031,"Division No.  2, Subd. C (SNO)",Newfoundland and Labrador,-55.3188,-54.3838,47.1614,48.0259
1002033,Rushoon (T),Newfoundland and Labrador,-54.9486,-54.8919,47.3367,47.3696
1002034,Parkers Cove (T),Newfoundland and Labrador,-54.8739,-54.8397,47.3855,47.4091
1002036,Terrenceville (T),Newfoundland and Labrador,-54.7595,-54.6573,47.6394,47.6838
1002037,Red Harbour (T),Newfoundland and Labrador,-55.0337,-54.969,47.269,47.313
1002039,English Harbour East (T),Newfoundland and Labrador,-54.8995,-54.8726,47.6213,47.6483
1002040,Baine Harbour (T),Newfoundland and Labrador,-54.9141,-54.873,47.3498,47.3777
1002041,St. Bernard's-Jacques Fontaine (T),Newfoundland and Labrador,-54.967,-54.84,47.5058,47.5374
1002044,"Division No.  2, Subd. L (SNO)",Newfoundland and Labrador,-54.6671,-54.0508,47.3262,48.0333
1002048,"Division No.  2, Subd. K (SNO)",Newfoundland and Labrador,-54.7617,-53.974,47.8196,48.2066
1002055,Little Bay East (T),Newfoundland and Labrador,-54.877,-54.8436,47.5491,47.5605
1003001,"Division No.  3, Subd. A (SNO)",Newfoundland and Labrador,-55.6554,-54.6897,47.4046,48.2875
1003002,Rencontre East (T),Newfoundland and Labrador,-55.2366,-55.202,47.6335,47.6507
1003003,St. Jacques-Coomb's Cove (T),Newfoundland and Labrador,-55.6711,-55.4078,47.3995,47.5033
1003004,Belleoram (T),Newfoundland and Labrador,-55.4324,-55.4013,47.5136,47.5374
1003005,Pool's Cove (T),Newfoundland and Labrador,-55.4475,-55.4219,47.6704,47.6952
1003006,"Division No.  3, Subd. B (SNO)",Newfoundland and Labrador,-55.971,-55.5149,47.2386,47.6556
1003008,Harbour Breton (T),Newfoundland and Labrador,-55.8618,-55.7927,47.4553,47.4976
1003009,"Division No.  3, Subd. C (SNO)",Newfoundland and Labrador,-56.2041,-55.3808,47.4642,48.0905
1003010,Seal Cove (Fortune Bay) (T),Newfoundland and Labrador,-56.0881,-56.0599,47.4747,47.4926
1003011,Hermitage-Sandyville (T),Newfoundland and Labrador,-55.9717,-55.8665,47.5066,47.5819
1003012,Gaultois (T),Newfoundland and Labrador,-55.9268,-55.8996,47.5986,47.631
1003014,"Division No.  3, Subd. D (SNO)",Newfoundland and Labrador,-58.1625,-55.3261,47.6161,48.5396
1003018,Milltown-Head of Bay d'Espoir (T),Newfoundland and Labrador,-55.7951,-55.6951,47.8876,47.9681
1003019,St. Alban's (T),Newfoundland and Labrador,-55.8827,-55.8131,47.847,47.9056
1003020,Morrisville (T),Newfoundland and Labrador,-55.8073,-55.7145,47.8672,47.9045
1003021,"Division No.  3, Subd. E (SNO)",Newfoundland and Labrador,-57.067,-56.1912,47.3795,48.1625
1003024,"Division No.  3, Subd. F (SNO)",Newfoundland and Labrador,-57.7403,-56.7916,47.5036,48.2015
1003026,Ramea (T),Newfoundland and Labrador,-57.4113,-57.3769,47.5108,47.5295
1003028,Burgeo (T),Newfoundland and Labrador,-57.6843,-57.5493,47.5861,47.6514
1003031,"Division No.  3, Subd. H (SNO)",Newfoundland and Labrador,-59.3185,-58.7194,47.5626,47.8863
1003032,Isle aux Morts (T),Newfoundland and Labrador,-58.9942,-58.9279,47.5802,47.6071
1003033,Burnt Islands (T),Newfoundland and Labrador,-58.9014,-58.829,47.5947,47.6291
1003034,Channel-Port aux Basques (T),Newfoundland and Labrador,-59.2078,-59.067,47.5636,47.6307
1003038,"Division No.  3, Subd. I (SNO)",Newfoundland and Labrador,-58.5612,-57.6397,47.6194,48.1159
1003042,"Division No.  3, Subd. J (SNO)",Newfoundland and Labrador,-58.8579,-58.4408,47.593,47.9698
1003045,Rose Blanche-Harbour le Cou (T),Newfoundland and Labrador,-58.7025,-58.6765,47.6011,47.6348
1003801,Samiajij Miawpukek (IRI),Newfoundland and Labrador,-55.7976,-55.6196,47.8545,47.9156
1004001,"Division No.  4, Subd. A (SNO)",Newfoundland and Labrador,-59.4115,-58.6338,47.6613,48.1078
1004006,"Division No.  4, Subd. B (SNO)",Newfoundland and Labrador,-59.4017,-57.9723,47.8969,48.3211
1004011,"Division No.  4, Subd. C (SNO)",Newfoundland and Labrador,-58.7079,-57.3929,48.2016,48.7278
1004013,St. George's (T),Newfoundland and Labrador,-58.5526,-58.4318,48.3907,48.449
1004016,"Division No.  4, Subd. D (SNO)",Newfoundland and Labrador,-58.8539,-58.108,48.523,48.9632
1004017,Gallants (T),Newfoundland and Labrador,-58.2588,-58.214,48.6926,48.7188
1004018,Stephenville Crossing (T),Newfoundland and Labrador,-58.5315,-58.4061,48.4886,48.5564
1004019,Stephenville (T),Newfoundland and Labrador,-58.6126,-58.4844,48.5004,48.5785
1004020,Kippens (T),Newfoundland and Labrador,-58.6737,-58.5987,48.5429,48.578
1004021,Port au Port East (T),Newfoundland and Labrador,-58.7281,-58.6153,48.5507,48.6118
1004022,"Division No.  4, Subd. E (SNO)",Newfoundland and Labrador,-59.2415,-58.7648,48.4983,48.789
1004033,Cape St. George (T),Newfoundland and Labrador,-59.2693,-59.0945,48.4646,48.527
1004037,Lourdes (T),Newfoundland and Labrador,-59.0459,-58.9702,48.6367,48.6688
1004042,Port au Port West-Aguathuna-Felix Cove (T),Newfoundland and Labrador,-58.8324,-58.7224,48.5249,48.5631
1005001,"Division No.  5, Subd. A (SNO)",Newfoundland and Labrador,-57.9527,-56.635,48.5089,49.2444
1005003,"Division No.  5, Subd. G (SNO)",Newfoundland and Labrador,-57.6988,-56.6373,49.3474,50.2297
1005004,Deer Lake (T),Newfoundland and Labrador,-57.4949,-57.2559,49.1581,49.2284
1005005,Jackson's Arm (T),Newfoundland and Labrador,-56.8434,-56.7534,49.8551,49.8763
1005006,Howley (T),Newfoundland and Labrador,-57.1523,-57.0656,49.1372,49.1774
1005007,"Division No.  5, Subd. E (SNO)",Newfoundland and Labrador,-57.6928,-56.6977,49.1082,49.6255
1005008,Hampden (T),Newfoundland and Labrador,-56.9149,-56.8428,49.5049,49.5759
1005009,Reidville (T),Newfoundland and Labrador,-57.4613,-57.2534,49.1931,49.3072
1005010,"Division No.  5, Subd. F (SNO)",Newfoundland and Labrador,-58.0528,-57.3024,48.7726,49.1307
1005011,Steady Brook (T),Newfoundland and Labrador,-57.8443,-57.7925,48.9493,48.9746
1005012,Pasadena (T),Newfoundland and Labrador,-57.6486,-57.5007,48.9849,49.0448
1005014,Cormack (T),Newfoundland and Labrador,-57.5097,-57.2562,49.2205,49.4057
1005015,Gillams (T),Newfoundland and Labrador,-58.1025,-58.0409,48.9995,49.0357
1005016,"Division No.  5, Subd. C (SNO)",Newfoundland and Labrador,-58.1887,-57.7698,48.6512,48.8976
1005017,Massey Drive (T),Newfoundland and Labrador,-57.9131,-57.8773,48.9261,48.9435
1005018,Corner Brook (CY),Newfoundland and Labrador,-58.0652,-57.7403,48.8766,48.9956
1005019,"Division No.  5, Subd. D (SNO)",Newfoundland and Labrador,-58.5138,-57.6048,48.8435,49.3433
1005020,Humber Arm South (T),Newfoundland and Labrador,-58.2526,-58.0843,48.9506,49.066
1005022,McIvers (T),Newfoundland and Labrador,-58.1466,-58.0817,49.0316,49.094
1005023,Cox's Cove (T),Newfoundland and Labrador,-58.0998,-58.0446,49.0938,49.1296
1005024,Lark Harbour (T),Newfoundland and Labrador,-58.4318,-58.3513,49.0789,49.1303
1005025,Meadows (T),Newfoundland and Labrador,-58.0679,-58.022,48.9866,49.0065
1005028,Hughes Brook (T),Newfoundland and Labrador,-57.8983,-57.8647,48.9934,49.0094
1005030,Irishtown-Summerside (T),Newfoundland and Labrador,-58.0258,-57.8831,48.974,49.0026
1005033,Mount Moriah (T),Newfoundland and Labrador,-58.1101,-58.032,48.9364,48.9811
1005035,York Harbour (T),Newfoundland and Labrador,-58.397,-58.2392,49.0444,49.0842
1006001,"Division No.  6, Subd. D (SNO)",Newfoundland and Labrador,-56.0399,-54.6546,48.2236,49.2184
1006003,Norris Arm (T),Newfoundland and Labrador,-55.3044,-55.1605,49.0292,49.1228
1006008,"Division No.  6, Subd. E (SNO)",Newfoundland and Labrador,-55.3467,-54.2348,48.3224,49.0936
1006009,Gander (T),Newfoundland and Labrador,-54.7204,-54.4997,48.8851,49.0072
1006011,Appleton (T),Newfoundland and Labrador,-54.8695,-54.8437,48.9573,49.0023
1006012,Glenwood (T),Newfoundland and Labrador,-54.8966,-54.8641,48.9564,49.0031
1006014,"Division No.  6, Subd. C (SNO)",Newfoundland and Labrador,-56.7761,-55.3095,48.4805,49.3562
1006015,Northern Arm (T),Newfoundland and Labrador,-55.435,-55.327,49.1441,49.215
1006017,Grand Falls-Windsor (T),Newfoundland and Labrador,-55.737,-55.5614,48.9223,48.9962
1006019,Bishop's Falls (T),Newfoundland and Labrador,-55.5666,-55.3993,48.9787,49.0487
1006021,Peterview (T),Newfoundland and Labrador,-55.3634,-55.3131,49.0881,49.1273
1006022,Botwood (T),Newfoundland and Labrador,-55.4044,-55.3331,49.1101,49.1583
1006026,Badger (T),Newfoundland and Labrador,-56.0547,-56.0328,48.968,48.9882
1006028,Millertown (T),Newfoundland and Labrador,-56.5518,-56.5179,48.8032,48.8229
1006029,"Division No.  6, Subd. A (SNO)",Newfoundland and Labrador,-57.9702,-56.1027,48.2233,49.1526
1006031,Buchans (T),Newfoundland and Labrador,-56.8811,-56.8217,48.8118,48.8322
1007001,"Division No.  7, Subd. M (SNO)",Newfoundland and Labrador,-54.1164,-53.6001,47.892,48.1296
1007006,"Division No.  7, Subd. L (SNO)",Newfoundland and Labrador,-53.9473,-53.432,48.0763,48.2416
1007009,"Division No.  7, Subd. K (SNO)",Newfoundland and Labrador,-54.1539,-53.4208,48.0809,48.4424
1007013,Clarenville (T),Newfoundland and Labrador,-54.174,-53.9303,48.1208,48.2498
1007014,"Division No.  7, Subd. J (SNO)",Newfoundland and Labrador,-53.5127,-53.1607,48.2452,48.5284
1007015,Trinity (Trinity Bay) (T),Newfoundland and Labrador,-53.4176,-53.345,48.3488,48.3947
1007016,Port Rexton (T),Newfoundland and Labrador,-53.353,-53.2832,48.3634,48.4144
1007018,"Division No.  7, Subd. I (SNO)",Newfoundland and Labrador,-53.2493,-52.9971,48.3923,48.6715
1007020,Elliston (T),Newfoundland and Labrador,-53.078,-53.0091,48.6166,48.6494
1007022,Trinity Bay North (T),Newfoundland and Labrador,-53.1052,-53.0267,48.4666,48.5651
1007023,Bonavista (T),Newfoundland and Labrador,-53.1437,-53.0674,48.5879,48.7032
1007024,"Division No.  7, Subd. G (SNO)",Newfoundland and Labrador,-53.418,-53.0989,48.4663,48.7017
1007025,Keels (T),Newfoundland and Labrador,-53.4358,-53.3611,48.5859,48.62
1007026,Duntara (T),Newfoundland and Labrador,-53.4234,-53.3271,48.5608,48.6174
1007027,King's Cove (T),Newfoundland and Labrador,-53.4197,-53.3206,48.5308,48.5876
1007028,"Division No.  7, Subd. F (SNO)",Newfoundland and Labrador,-53.7861,-53.4088,48.2707,48.6256
1007031,"Division No.  7, Subd. E (SNO)",Newfoundland and Labrador,-54.9015,-53.6334,48.0603,48.5483
1007032,Musgravetown (T),Newfoundland and Labrador,-53.9405,-53.8499,48.3907,48.4416
1007036,Port Blandford (T),Newfoundland and Labrador,-54.22,-54.1313,48.3026,48.4116
1007037,Traytown (T),Newfoundland and Labrador,-54.0156,-53.9414,48.6379,48.7113
1007038,"Division No.  7, Subd. D (SNO)",Newfoundland and Labrador,-55.3002,-53.565,48.1725,48.8985
1007039,Sandy Cove (T),Newfoundland and Labrador,-53.7488,-53.6608,48.633,48.6602
1007040,Terra Nova (T),Newfoundland and Labrador,-54.2304,-54.1961,48.4954,48.5125
1007041,Happy Adventure (T),Newfoundland and Labrador,-53.8153,-53.7432,48.6213,48.6467
1007042,Eastport (T),Newfoundland and Labrador,-53.8097,-53.7151,48.6434,48.6936
1007043,Sandringham (T),Newfoundland and Labrador,-53.8701,-53.8021,48.6445,48.6825
1007044,Glovertown (T),Newfoundland and Labrador,-54.0923,-53.9467,48.6342,48.7417
1007045,"Division No.  7, Subd. N (SNO)",Newfoundland and Labrador,-54.9717,-54.0,48.4615,48.9518
1007046,Salvage (T),Newfoundland and Labrador,-53.7159,-53.6171,48.6516,48.7015
1007047,Gambo (T),Newfoundland and Labrador,-54.275,-54.0831,48.7234,48.848
1007048,St. Brendan's (T),Newfoundland and Labrador,-53.7046,-53.6275,48.8301,48.8804
1007049,Hare Bay (T),Newfoundland and Labrador,-54.0839,-53.9808,48.8237,48.8942
1007050,Centreville-Wareham-Trinity (T),Newfoundland and Labrador,-53.9705,-53.8372,48.9449,49.033
1007051,"Division No.  7, Subd. B (SNO)",Newfoundland and Labrador,-54.4181,-53.5345,48.8478,49.1877
1007054,Greenspond (T),Newfoundland and Labrador,-53.5919,-53.5599,49.064,49.0822
1007056,"Division No.  7, Subd. A (SNO)",Newfoundland and Labrador,-53.9509,-53.3568,49.0747,49.2829
1007057,Dover (T),Newfoundland and Labrador,-54.0001,-53.8953,48.8641,48.903
1007060,New-Wes-Valley (T),Newfoundland and Labrador,-53.7673,-53.4729,49.0754,49.2451
1007067,Indian Bay (T),Newfoundland and Labrador,-54.0695,-53.8474,49.0304,49.0912
1008001,"Division No.  8, Subd. M (SNO)",Newfoundland and Labrador,-54.2637,-53.171,49.1431,49.7614
1008004,Lumsden (T),Newfoundland and Labrador,-53.6446,-53.531,49.2508,49.3258
1008006,Musgrave Harbour (T),Newfoundland and Labrador,-54.0782,-53.8627,49.3916,49.46
1008008,"Division No.  8, Subd. L (SNO)",Newfoundland and Labrador,-54.7475,-54.0058,48.9816,49.6864
1008011,Carmanville (T),Newfoundland and Labrador,-54.3424,-54.2317,49.3268,49.4271
1008024,Change Islands (T),Newfoundland and Labrador,-54.4306,-54.3787,49.6497,49.683
1008026,"Division No.  8, Subd. I (SNO)",Newfoundland and Labrador,-54.8169,-54.6814,49.5898,49.7043
1008029,Crow Head (T),Newfoundland and Labrador,-54.8204,-54.7849,49.6655,49.6915
1008031,"Division No.  8, Subd. H (SNO)",Newfoundland and Labrador,-54.9203,-54.501,49.4499,49.7058
1008032,Cottlesville (T),Newfoundland and Labrador,-54.8927,-54.8216,49.4792,49.5166
1008033,Summerford (T),Newfoundland and Labrador,-54.8289,-54.7433,49.4675,49.5182
1008035,Twillingate (T),Newfoundland and Labrador,-54.8058,-54.6983,49.5995,49.6819
1008036,"Division No.  8, Subd. G (SNO)",Newfoundland and Labrador,-55.206,-54.5381,49.1193,49.5608
1008037,Campbellton (T),Newfoundland and Labrador,-54.971,-54.8746,49.2342,49.3087
1008038,Birchy Bay (T),Newfoundland and Labrador,-54.7624,-54.6812,49.267,49.3894
1008039,Comfort Cove-Newstead (T),Newfoundland and Labrador,-54.9159,-54.8395,49.3024,49.4157
1008040,Baytona (T),Newfoundland and Labrador,-54.8092,-54.7617,49.2977,49.361
1008042,"Division No.  8, Subd. F (SNO)",Newfoundland and Labrador,-55.3121,-55.0522,49.1522,49.296
1008043,Embree (T),Newfoundland and Labrador,-55.0768,-55.0119,49.2706,49.3521
1008044,Lewisporte (T),Newfoundland and Labrador,-55.0995,-54.9655,49.2038,49.2807
1008045,Little Burnt Bay (T),Newfoundland and Labrador,-55.1015,-55.0562,49.3082,49.364
1008046,"Division No.  8, Subd. E (SNO)",Newfoundland and Labrador,-55.8061,-55.1323,49.0562,49.5448
1008047,Point of Bay (T),Newfoundland and Labrador,-55.2998,-55.2383,49.2352,49.3117
1008048,Leading Tickles (T),Newfoundland and Labrador,-55.4792,-55.3653,49.4534,49.5125
1008049,Point Leamington (T),Newfoundland and Labrador,-55.4577,-55.3721,49.2943,49.3595
1008052,"Division No.  8, Subd. D (SNO)",Newfoundland and Labrador,-55.7552,-55.508,49.4744,49.6608
1008053,Pilley's Island (T),Newfoundland and Labrador,-55.759,-55.6654,49.4865,49.5615
1008054,Triton (T),Newfoundland and Labrador,-55.6504,-55.583,49.5014,49.5376
1008055,Brighton (T),Newfoundland and Labrador,-55.6611,-55.6208,49.5268,49.552
1008056,Lushes Bight-Beaumont-Beaumont North (T),Newfoundland and Labrador,-55.7444,-55.5798,49.5658,49.6323
1008058,"Division No.  8, Subd. C (SNO)",Newfoundland and Labrador,-56.5107,-55.5346,49.2751,49.6955
1008059,South Brook (T),Newfoundland and Labrador,-56.1302,-56.0552,49.3531,49.4546
1008060,Robert's Arm (T),Newfoundland and Labrador,-55.9006,-55.7625,49.4554,49.5102
1008061,Springdale (T),Newfoundland and Labrador,-56.1223,-56.0018,49.4864,49.5301
1008062,Port Anson (T),Newfoundland and Labrador,-55.9063,-55.8083,49.5233,49.5499
1008063,Little Bay (T),Newfoundland and Labrador,-55.9606,-55.9424,49.5912,49.6082
1008064,Little Bay Islands (T),Newfoundland and Labrador,-55.8182,-55.7721,49.6271,49.6628
1008065,"Division No.  8, Subd. P (SNO)",Newfoundland and Labrador,-56.4467,-55.8804,49.4593,49.7249
1008066,Beachside (T),Newfoundland and Labrador,-55.9178,-55.8694,49.6349,49.6514
1008067,"Division No.  8, Subd. O (SNO)",Newfoundland and Labrador,-56.3066,-55.4747,49.6647,50.006
1008069,King's Point (T),Newfoundland and Labrador,-56.2825,-56.1229,49.5412,49.6149
1008070,Nippers Harbour (T),Newfoundland and Labrador,-55.8766,-55.8514,49.7837,49.7998
1008071,Burlington (T),Newfoundland and Labrador,-56.0337,-55.9912,49.7342,49.7605
1008072,Middle Arm (T),Newfoundland and Labrador,-56.1651,-56.0457,49.6782,49.7194
1008073,Tilt Cove (T),Newfoundland and Labrador,-55.6406,-55.6016,49.8788,49.8962
1008074,"Division No.  8, Subd. A (SNO)",Newfoundland and Labrador,-56.988,-55.5232,49.2085,50.2352
1008075,Fleur de Lys (T),Newfoundland and Labrador,-56.2275,-56.0908,50.0809,50.1581
1008076,LaScie (T),Newfoundland and Labrador,-55.6549,-55.5659,49.9168,49.9853
1008077,Brent's Cove (T),Newfoundland and Labrador,-55.7207,-55.7011,49.9331,49.9439
1008078,Pacquet (T),Newfoundland and Labrador,-55.9387,-55.8524,49.9664,50.021
1008079,Baie Verte (T),Newfoundland and Labrador,-56.3713,-56.0083,49.7913,50.0506
1008091,Seal Cove (White Bay) (T),Newfoundland and Labrador,-56.4088,-56.3433,49.9155,49.9505
1008092,Coachman's Cove (T),Newfoundland and Labrador,-56.1637,-56.0741,50.0383,50.0991
1008093,Westport (T),Newfoundland and Labrador,-56.6461,-56.5908,49.7792,49.7962
1008095,Ming's Bight (T),Newfoundland and Labrador,-56.0668,-56.0119,49.9676,49.9832
1008096,Woodstock (T),Newfoundland and Labrador,-55.9389,-55.848,49.9487,49.9829
1008098,Miles Cove (T),Newfoundland and Labrador,-55.8224,-55.7675,49.5286,49.5495
1008099,Fogo Island (T),Newfoundland and Labrador,-54.3246,-53.9943,49.5604,49.8263
1009001,"Division No.  9, Subd. F (SNO)",Newfoundland and Labrador,-57.0988,-55.4589,50.0708,51.3916
1009004,Englee (T),Newfoundland and Labrador,-56.1159,-56.0111,50.7205,50.7962
1009007,Roddickton-Bide Arm (T),Newfoundland and Labrador,-56.1504,-56.065,50.7847,50.9229
1009008,Conche (T),Newfoundland and Labrador,-55.9123,-55.8561,50.8612,50.9162
1009009,"Division No.  9, Subd. A (SNO)",Newfoundland and Labrador,-58.2439,-57.4235,49.2811,49.8472
1009010,Trout River (T),Newfoundland and Labrador,-58.1462,-58.1056,49.4604,49.4945
1009011,"Woody Point, Bonne Bay (T)",Newfoundland and Labrador,-57.9385,-57.9123,49.4801,49.5171
1009012,Norris Point (T),Newfoundland and Labrador,-57.8958,-57.8521,49.5137,49.5431
1009013,Rocky Harbour (T),Newfoundland and Labrador,-57.9577,-57.8919,49.5669,49.6174
1009015,Daniel's Harbour (T),Newfoundland and Labrador,-57.6106,-57.5608,50.2054,50.2645
1009016,Cow Head (T),Newfoundland and Labrador,-57.8335,-57.7242,49.8872,49.9487
1009017,Parson's Pond (T),Newfoundland and Labrador,-57.7346,-57.675,50.0105,50.0686
1009018,Hawke's Bay (T),Newfoundland and Labrador,-57.2918,-57.1275,50.5735,50.6584
1009019,Port Saunders (T),Newfoundland and Labrador,-57.3157,-57.1986,50.6187,50.6976
1009020,St. Pauls (T),Newfoundland and Labrador,-57.8375,-57.7715,49.8458,49.8819
1009021,"Division No.  9, Subd. C (SNO)",Newfoundland and Labrador,-57.2875,-55.9828,50.726,51.5786
1009022,Port au Choix (T),Newfoundland and Labrador,-57.4125,-57.2616,50.671,50.7324
1009023,Anchor Point (T),Newfoundland and Labrador,-56.8086,-56.7722,51.2271,51.2483
1009024,Flower's Cove (T),Newfoundland and Labrador,-56.7509,-56.6827,51.2736,51.3107
1009026,Bird Cove (T),Newfoundland and Labrador,-56.9876,-56.9036,51.0278,51.0615
1009028,Main Brook (T),Newfoundland and Labrador,-56.0397,-55.9356,51.1336,51.2
1009029,St. Anthony (T),Newfoundland and Labrador,-55.6627,-55.5538,51.3324,51.4215
1009030,Glenburnie-Birchy Head-Shoal Brook (T),Newfoundland and Labrador,-57.9375,-57.8828,49.4266,49.4816
1009031,"Division No.  9, Subd. D (SNO)",Newfoundland and Labrador,-56.1401,-55.2774,51.3087,52.0069
1009032,St. Lunaire-Griquet (T),Newfoundland and Labrador,-55.5145,-55.4434,51.49,51.5527
1009034,Cook's Harbour (T),Newfoundland and Labrador,-55.8812,-55.8426,51.5873,51.6181
1009035,Raleigh (T),Newfoundland and Labrador,-55.7626,-55.6895,51.5364,51.5896
1009037,Sally's Cove (T),Newfoundland and Labrador,-57.9495,-57.9189,49.7124,49.7456
1009039,Goose Cove East (T),Newfoundland and Labrador,-55.642,-55.5924,51.299,51.3117
1009041,"Division No.  9, Subd. H (SNO)",Newfoundland and Labrador,-57.8375,-56.904,49.8154,50.4927
1009042,Bellburns (T),Newfoundland and Labrador,-57.5484,-57.5009,50.3095,50.3485
1009047,"Division No.  9, Subd. G (SNO)",Newfoundland and Labrador,-57.4747,-56.6338,50.4282,50.8417
1009048,River of Ponds (T),Newfoundland and Labrador,-57.4116,-57.3668,50.5166,50.5517
1010001,"Division No. 10, Subd. A (SNO)",Newfoundland and Labrador,-57.1081,-55.9223,51.4166,52.2676
1010002,L'Anse au Loup (T),Newfoundland and Labrador,-56.8551,-56.8102,51.5162,51.534
1010003,Red Bay (T),Newfoundland and Labrador,-56.4303,-56.4107,51.726,51.7418
1010004,L'Anse-au-Clair (T),Newfoundland and Labrador,-57.1085,-57.0066,51.4128,51.5205
1010005,Forteau (T),Newfoundland and Labrador,-56.9721,-56.919,51.4561,51.5027
1010006,West St. Modeste (T),Newfoundland and Labrador,-56.7453,-56.7025,51.5794,51.6167
1010007,Pinware (T),Newfoundland and Labrador,-56.7276,-56.6771,51.6183,51.6453
1010008,"Division No. 10, Subd. B (SNO)",Newfoundland and Labrador,-59.9684,-55.5726,51.9403,54.0876
1010009,Port Hope Simpson (T),Newfoundland and Labrador,-56.3955,-56.2635,52.5125,52.5674
1010010,St. Lewis (T),Newfoundland and Labrador,-55.7235,-55.654,52.3475,52.3854
1010011,Mary's Harbour (T),Newfoundland and Labrador,-55.9007,-55.7899,52.2452,52.3208
1010012,"Cartwright, Labrador (T)",Newfoundland and Labrador,-57.0121,-56.9721,53.6904,53.7135
1010013,Charlottetown (Labrador) (T),Newfoundland and Labrador,-56.189,-56.0783,52.7441,52.8016
1010020,"Division No. 10, Subd. C (SNO)",Newfoundland and Labrador,-64.0935,-56.9403,51.8397,54.5607
1010022,North West River (T),Newfoundland and Labrador,-60.1542,-60.1167,53.5239,53.5485
1010025,Happy Valley-Goose Bay (T),Newfoundland and Labrador,-60.6027,-60.1833,53.2609,53.4257
1010029,"Division No. 10, Subd. D (SNO)",Newfoundland and Labrador,-67.8217,-61.7478,51.5739,55.3567
1010032,Labrador City (T),Newfoundland and Labrador,-66.9885,-66.8865,52.9232,52.9952
1010034,Wabush (T),Newfoundland and Labrador,-66.9611,-66.8296,52.8418,52.9418
1010042,"Division No. 10, Subd. E (SNO)",Newfoundland and Labrador,-64.036,-60.4374,54.2383,56.4242
1010801,Natuashish  2 (IRI),Newfoundland and Labrador,-61.2679,-61.0589,55.8842,55.9418
1010802,Sheshatshiu 3 (IRI),Newfoundland and Labrador,-60.2265,-60.0975,53.4891,53.5261
1011005,"Division No. 11, Subd. C (SNO)",Newfoundland and Labrador,-62.2703,-56.8702,53.5448,55.8834
1011010,Rigolet (T),Newfoundland and Labrador,-58.4458,-58.4105,54.1649,54.188
1011015,Postville (T),Newfoundland and Labrador,-59.7856,-59.7563,54.8959,54.9122
1011020,Makkovik (T),Newfoundland and Labrador,-59.1793,-59.1532,55.0803,55.0984
1011030,Hopedale (T),Newfoundland and Labrador,-60.2251,-60.1874,55.4486,55.4689
1011035,Nain (T),Newfoundland and Labrador,-61.8726,-61.6474,56.4802,56.5718
1011040,"Division No. 11, Subd. E (SNO)",Newfoundland and Labrador,-64.9394,-60.6902,55.9905,60.3777
1101001,Lot 64 (LOT),Prince Edward Island,-62.6885,-62.453,45.9591,46.0319
1101002,Murray Harbour (COM),Prince Edward Island,-62.5474,-62.513,45.9921,46.0184
1101004,Murray River (COM),Prince Edward Island,-62.6246,-62.6019,46.006,46.0201
1101006,Lot 63 (LOT),Prince Edward Island,-62.7052,-62.4485,46.0107,46.1049
1101008,Lot 61 (LOT),Prince Edward Island,-62.7217,-62.4494,46.0541,46.1493
1101009,Lot 59 (LOT),Prince Edward Island,-62.7385,-62.525,46.0954,46.1773
1101011,Lot 66 (LOT),Prince Edward Island,-62.7946,-62.7194,46.1368,46.2777
1101014,Lot 51 (LOT),Prince Edward Island,-62.7759,-62.6513,46.141,46.3148
1101016,Lot 52 (LOT),Prince Edward Island,-62.733,-62.6122,46.1565,46.3265
1101018,Montague (T),Prince Edward Island,-62.6661,-62.6324,46.1542,46.1764
1101019,Lot 53 (LOT),Prince Edward Island,-62.6731,-62.5562,46.1743,46.3387
1101021,Cardigan (COM),Prince Edward Island,-62.6465,-62.5981,46.2219,46.2449
1101022,"Kings, Royalty (LOT)",Prince Edward Island,-62.5838,-62.4958,46.1728,46.2256
1101024,Georgetown (T),Prince Edward Island,-62.5424,-62.5201,46.1764,46.193
1101026,Lot 54 (LOT),Prince Edward Island,-62.6103,-62.4887,46.2052,46.3523
1101028,Lot 55 (LOT),Prince Edward Island,-62.5478,-62.398,46.1781,46.3733
1101029,Lot 56 (LOT),Prince Edward Island,-62.4892,-62.3575,46.2517,46.3891
1101031,Lot 43 (LOT),Prince Edward Island,-62.4476,-62.332,46.3022,46.4715
1101032,Lot 44 (LOT),Prince Edward Island,-62.3889,-62.2654,46.3331,46.4728
1101034,Lot 45 (LOT),Prince Edward Island,-62.3138,-62.1948,46.3447,46.4777
1101036,Souris (T),Prince Edward Island,-62.2773,-62.2345,46.3419,46.3657
1101038,Lot 46 (LOT),Prince Edward Island,-62.2475,-62.1197,46.3477,46.4842
1101039,Lot 47 (LOT),Prince Edward Island,-62.1668,-61.9707,46.3727,46.4855
1101041,Lot 42 (LOT),Prince Edward Island,-62.564,-62.4099,46.3669,46.4752
1101042,Lot 41 (LOT),Prince Edward Island,-62.6452,-62.5236,46.3418,46.4686
1101044,St. Peters Bay (COM),Prince Edward Island,-62.6094,-62.5659,46.4053,46.4297
1101046,Lot 40 (LOT),Prince Edward Island,-62.7283,-62.5947,46.3262,46.4632
1101048,Morell (COM),Prince Edward Island,-62.714,-62.6976,46.4077,46.4225
1101049,Lot 39 (LOT),Prince Edward Island,-62.8005,-62.6747,46.311,46.4437
1101050,Morell 2 (IRI),Prince Edward Island,-62.7162,-62.6969,46.3527,46.363
1101051,Lot 38 (LOT),Prince Edward Island,-62.8642,-62.7429,46.2724,46.4362
1102001,Lot 62 (LOT),Prince Edward Island,-62.8766,-62.6676,45.9483,46.0308
1102004,Lot 60 (LOT),Prince Edward Island,-62.9235,-62.6957,45.9927,46.0772
1102006,Lot 58 (LOT),Prince Edward Island,-63.0407,-62.7144,46.0358,46.1129
1102008,Lot 57 (LOT),Prince Edward Island,-63.0407,-62.7288,46.0514,46.1725
1102009,Lot 50 (LOT),Prince Edward Island,-63.0683,-62.7532,46.1207,46.2186
1102012,Lot 49 (LOT),Prince Edward Island,-63.0545,-62.7719,46.1729,46.2741
1102014,Lot 48 (LOT),Prince Edward Island,-63.0899,-62.8592,46.207,46.2958
1102026,Lot 31 (LOT),Prince Edward Island,-63.3558,-63.2307,46.1985,46.3275
1102028,Lot 65 (LOT),Prince Edward Island,-63.3714,-63.1287,46.1133,46.3168
1102029,Lot 30 (LOT),Prince Edward Island,-63.4339,-63.31,46.1477,46.3138
1102030,Rocky Point 3 (IRI),Prince Edward Island,-63.1451,-63.1415,46.202,46.2048
1102031,Lot 29 (LOT),Prince Edward Island,-63.5247,-63.3857,46.1684,46.3069
1102032,Victoria (COM),Prince Edward Island,-63.5006,-63.4708,46.2054,46.2234
1102033,Meadowbank (COM),Prince Edward Island,-63.2643,-63.1879,46.188,46.2224
1102034,Crapaud (COM),Prince Edward Island,-63.5109,-63.4901,46.2322,46.2481
1102036,Lot 67 (LOT),Prince Edward Island,-63.5632,-63.3956,46.289,46.4172
1102037,Clyde River (COM),Prince Edward Island,-63.2954,-63.2317,46.1908,46.2493
1102038,Lot 20 (LOT),Prince Edward Island,-63.6232,-63.4999,46.4063,46.5591
1102039,Lot 21 (LOT),Prince Edward Island,-63.5492,-63.4201,46.3605,46.5394
1102040,Miltonvale Park (COM),Prince Edward Island,-63.2947,-63.1791,46.2766,46.3583
1102041,Lot 22 (LOT),Prince Edward Island,-63.4542,-63.3403,46.31,46.4661
1102042,Lot 23 (LOT),Prince Edward Island,-63.4001,-63.2852,46.3146,46.4768
1102043,Hunter River (COM),Prince Edward Island,-63.369,-63.3289,46.3439,46.3754
1102044,Lot 24 (LOT),Prince Edward Island,-63.3411,-63.2151,46.3227,46.4684
1102045,Resort Mun. Stan.B.-Hope R.-Bayv.-Cavend.-N.Rust. (COM),Prince Edward Island,-63.48,-63.298,46.4571,46.5121
1102046,North Rustico (COM),Prince Edward Island,-63.3346,-63.2958,46.4504,46.4642
1102048,Brackley (COM),Prince Edward Island,-63.1685,-63.127,46.2842,46.3307
1102049,Lot 33 (LOT),Prince Edward Island,-63.2379,-63.1443,46.3257,46.4336
1102050,Union Road (COM),Prince Edward Island,-63.1573,-63.1085,46.3039,46.3731
1102051,Breadalbane (COM),Prince Edward Island,-63.5434,-63.4578,46.3335,46.3752
1102052,Lot 34 (LOT),Prince Edward Island,-63.1643,-63.0296,46.2645,46.4315
1102054,Lot 35 (LOT),Prince Edward Island,-63.0742,-62.9421,46.2501,46.4178
1102056,Lot 36 (LOT),Prince Edward Island,-63.0374,-62.8737,46.2632,46.4257
1102057,Scotchfort 4 (IRI),Prince Edward Island,-62.9173,-62.8963,46.349,46.3711
1102058,Lot 37 (LOT),Prince Edward Island,-62.9309,-62.8033,46.2603,46.4342
1102059,Mount Stewart (COM),Prince Edward Island,-62.8795,-62.8581,46.3608,46.3728
1102065,Winsloe South (COM),Prince Edward Island,-63.2003,-63.1552,46.2947,46.3385
1102070,Warren Grove (COM),Prince Edward Island,-63.2509,-63.1858,46.2549,46.296
1102075,Charlottetown (CY),Prince Edward Island,-63.197,-63.0737,46.2215,46.3062
1102080,Stratford (T),Prince Edward Island,-63.13,-63.0336,46.1912,46.2501
1102085,Cornwall (T),Prince Edward Island,-63.2559,-63.1455,46.2039,46.2764
1103001,Lot 28 (LOT),Prince Edward Island,-63.6981,-63.4942,46.2031,46.2883
1103005,Borden-Carleton (T),Prince Edward Island,-63.7066,-63.6472,46.2404,46.282
1103006,Lot 27 (LOT),Prince Edward Island,-63.7483,-63.5244,46.265,46.3393
1103008,Kinkora (COM),Prince Edward Island,-63.6108,-63.5777,46.3067,46.3316
1103009,Lot 26 (LOT),Prince Edward Island,-63.8167,-63.5433,46.3038,46.3793
1103011,Lot 25 (LOT),Prince Edward Island,-63.768,-63.5541,46.351,46.4252
1103012,Lot 19 (LOT),Prince Edward Island,-63.7578,-63.5704,46.3909,46.4717
1103014,Kensington (T),Prince Edward Island,-63.6525,-63.6233,46.423,46.4486
1103015,Bedeque and Area (COM),Prince Edward Island,-63.7268,-63.6896,46.33,46.3457
1103016,Lot 18 (LOT),Prince Edward Island,-63.7901,-63.588,46.448,46.5679
1103018,Sherbrooke (COM),Prince Edward Island,-63.7983,-63.7458,46.4174,46.4481
1103019,Lot 17 (LOT),Prince Edward Island,-63.9773,-63.7831,46.3712,46.4603
1103023,Linkletter (COM),Prince Edward Island,-63.8619,-63.8132,46.3902,46.4259
1103024,Miscouche (COM),Prince Edward Island,-63.8832,-63.8455,46.4221,46.4451
1103025,Summerside (CY),Prince Edward Island,-63.8471,-63.7233,46.3864,46.4436
1103026,Lot 15 (LOT),Prince Edward Island,-64.1409,-63.9619,46.3852,46.5493
1103027,Abrams Village (COM),Prince Edward Island,-64.0924,-64.0593,46.4483,46.4629
1103028,Lot 16 (LOT),Prince Edward Island,-64.0557,-63.8033,46.428,46.5181
1103029,Wellington (COM),Prince Edward Island,-64.0117,-63.9905,46.4435,46.4614
1103031,Lot 14 (LOT),Prince Edward Island,-64.0758,-63.8503,46.4652,46.5601
1103032,Lot 13 (LOT),Prince Edward Island,-64.0887,-63.8323,46.518,46.6054
1103033,Tyne Valley (COM),Prince Edward Island,-63.9395,-63.9185,46.5678,46.5837
1103034,Lot 12 (LOT),Prince Edward Island,-64.0466,-63.768,46.5768,46.6613
1103035,Lennox Island 1 (IRI),Prince Edward Island,-63.8759,-63.7088,46.5721,46.6549
1103036,Lot 11 (LOT),Prince Edward Island,-64.0748,-63.8742,46.6345,46.801
1103038,Lot 10 (LOT),Prince Edward Island,-64.1529,-64.0256,46.5707,46.7027
1103041,Lot  6 (LOT),Prince Edward Island,-64.2788,-64.0606,46.6817,46.7581
1103042,O'Leary (COM),Prince Edward Island,-64.2401,-64.2151,46.6983,46.7193
1103044,Lot  9 (LOT),Prince Edward Island,-64.26,-64.1084,46.585,46.7003
1103046,Lot  8 (LOT),Prince Edward Island,-64.4134,-64.2387,46.615,46.6999
1103048,Lot  7 (LOT),Prince Edward Island,-64.4134,-64.2706,46.6749,46.7923
1103049,Lot  5 (LOT),Prince Edward Island,-64.2964,-64.029,46.7198,46.8127
1103051,Lot  4 (LOT),Prince Edward Island,-64.3066,-64.0019,46.7647,46.8618
1103052,Alberton (T),Prince Edward Island,-64.084,-64.0455,46.8003,46.8229
1103054,Lot  3 (LOT),Prince Edward Island,-64.276,-63.9735,46.8174,46.9043
1103056,Lot  2 (LOT),Prince Edward Island,-64.2439,-63.9748,46.8588,46.9456
1103057,St. Louis (COM),Prince Edward Island,-64.1477,-64.1294,46.884,46.8911
1103058,Lot  1 (LOT),Prince Edward Island,-64.2131,-63.9876,46.9063,47.0612
1103059,Tignish (COM),Prince Edward Island,-64.0542,-64.0131,46.9382,46.9641
1103062,Miminegash (COM),Prince Edward Island,-64.2368,-64.2143,46.8689,46.8903
1201001,Barrington (MD),Nova Scotia,-65.8047,-65.3417,43.3897,43.9218
1201004,Clark's Harbour (T),Nova Scotia,-65.6555,-65.6195,43.4325,43.4583
1201006,Shelburne (MD),Nova Scotia,-65.5567,-64.923,43.5343,44.2323
1201008,Shelburne (T),Nova Scotia,-65.3459,-65.2937,43.7501,43.7896
1201009,Lockeport (T),Nova Scotia,-65.1302,-65.101,43.6883,43.718
1202001,Argyle (MD),Nova Scotia,-66.064,-65.3958,43.3921,44.2323
1202004,Yarmouth (MD),Nova Scotia,-66.1708,-65.8022,43.6872,44.1381
1202006,Yarmouth (T),Nova Scotia,-66.1272,-66.0894,43.8174,43.8571
1202040,Yarmouth 33 (IRI),Nova Scotia,-66.0872,-66.0754,43.8323,43.8395
1203001,Clare (MD),Nova Scotia,-66.2139,-65.7144,44.0015,44.4419
1203004,Digby (MD),Nova Scotia,-66.3949,-65.3315,44.1715,44.6923
1203006,Digby (T),Nova Scotia,-65.7709,-65.7511,44.6075,44.6424
1203009,Bear River (Part) 6 (IRI),Nova Scotia,-65.6376,-65.6021,44.5342,44.5664
1204009,Ponhook Lake 10 (IRI),Nova Scotia,-65.0055,-64.9886,44.159,44.1765
1204010,Queens (RGM),Nova Scotia,-65.3958,-64.5169,43.7882,44.5371
1204015,Wildcat 12 (IRI),Nova Scotia,-64.9327,-64.9082,44.3375,44.3692
1205001,"Annapolis, Subd. D (SC)",Nova Scotia,-65.6247,-64.7732,44.3116,44.9692
1205002,Bear River (Part) 6 (IRI),Nova Scotia,-65.6328,-65.5921,44.5399,44.5671
1205004,"Annapolis, Subd. A (SC)",Nova Scotia,-65.76,-65.2869,44.5551,44.8861
1205006,Bear River 6B (IRI),Nova Scotia,-65.5054,-65.4987,44.7018,44.7092
1205008,Annapolis Royal (T),Nova Scotia,-65.5228,-65.4992,44.7299,44.7554
1205009,"Annapolis, Subd. B (SC)",Nova Scotia,-65.396,-65.0651,44.75,44.9888
1205014,"Annapolis, Subd. C (SC)",Nova Scotia,-65.1881,-64.9568,44.833,45.0676
1205016,Middleton (T),Nova Scotia,-65.0937,-65.0538,44.9248,44.9604
1206001,Lunenburg (MD),Nova Scotia,-64.9455,-64.0467,44.1332,44.7355
1206004,Bridgewater (T),Nova Scotia,-64.5649,-64.4888,44.3577,44.4056
1206006,Lunenburg (T),Nova Scotia,-64.3346,-64.2994,44.3647,44.3871
1206008,Mahone Bay (T),Nova Scotia,-64.3985,-64.3638,44.4362,44.4617
1206009,Chester (MD),Nova Scotia,-64.6746,-63.9934,44.4636,44.8993
1206011,Gold River 21 (IRI),Nova Scotia,-64.3579,-64.3248,44.5519,44.5664
1206014,Pennal 19 (IRI),Nova Scotia,-64.4404,-64.4294,44.7905,44.7984
1206016,New Ross 20 (IRI),Nova Scotia,-64.4331,-64.3972,44.8305,44.8564
1207001,"Kings, Subd. A (SC)",Nova Scotia,-65.0197,-64.5578,44.6636,45.1981
1207002,Cambridge 32 (IRI),Nova Scotia,-64.6583,-64.6407,45.064,45.0727
1207004,Berwick (T),Nova Scotia,-64.7552,-64.7102,45.0327,45.0606
1207011,"Kings, Subd. C (SC)",Nova Scotia,-64.6216,-64.3991,44.8118,45.0945
1207012,Kentville (T),Nova Scotia,-64.5661,-64.4738,45.0566,45.09
1207016,"Kings, Subd. B (SC)",Nova Scotia,-64.6414,-64.3262,45.073,45.3348
1207021,"Kings, Subd. D (SC)",Nova Scotia,-64.4768,-64.1699,44.9152,45.1468
1207024,Wolfville (T),Nova Scotia,-64.3841,-64.3339,45.0773,45.1002
1207027,Glooscap 35 (IRI),Nova Scotia,-64.2514,-64.2238,45.0354,45.0502
1208001,West Hants (MD),Nova Scotia,-64.4322,-63.8781,44.7609,45.2341
1208002,Windsor (T),Nova Scotia,-64.1624,-64.1092,44.9651,45.0022
1208008,East Hants (MD),Nova Scotia,-64.0123,-63.3819,44.7828,45.3363
1208014,Indian Brook 14 (IRI),Nova Scotia,-63.5187,-63.45,45.067,45.1083
1209019,Cole Harbour 30 (IRI),Nova Scotia,-63.4877,-63.4788,44.6459,44.6537
1209029,Shubenacadie 13 (IRI),Nova Scotia,-63.6234,-63.5903,44.9267,44.9455
1209034,Halifax (RGM),Nova Scotia,-64.2372,-59.7073,43.9205,45.2759
1209037,Beaver Lake 17 (IRI),Nova Scotia,-62.7705,-62.7501,45.0178,45.0286
1209038,Sheet Harbour 36 (IRI),Nova Scotia,-62.5743,-62.52,44.909,44.9186
1209800,Wallace Hills 14A (IRI),Nova Scotia,-63.8034,-63.7927,44.7278,44.7354
1210001,"Colchester, Subd. C (SC)",Nova Scotia,-63.484,-62.7141,45.0292,45.4511
1210002,Stewiacke (T),Nova Scotia,-63.3949,-63.3128,45.1116,45.1607
1210003,Millbrook 27 (IRI),Nova Scotia,-63.3168,-63.2824,45.3196,45.3481
1210006,Truro (T),Nova Scotia,-63.3088,-63.1933,45.3102,45.3839
1210008,"Colchester, Subd. B (SC)",Nova Scotia,-63.5397,-62.9502,45.3615,45.7674
1210012,"Colchester, Subd. A (SC)",Nova Scotia,-64.1337,-63.4382,45.3486,45.6079
1211001,"Cumberland, Subd. A (SC)",Nova Scotia,-65.0185,-64.2939,45.2467,45.8243
1211002,Parrsboro (T),Nova Scotia,-64.3597,-64.2973,45.3648,45.4255
1211006,"Cumberland, Subd. B (SC)",Nova Scotia,-64.3865,-63.7969,45.378,45.8013
1211009,"Cumberland, Subd. C (SC)",Nova Scotia,-64.3014,-63.7166,45.6827,46.005
1211011,Amherst (T),Nova Scotia,-64.2329,-64.1787,45.8021,45.845
1211012,Oxford (T),Nova Scotia,-63.8981,-63.8322,45.7129,45.7548
1211014,"Cumberland, Subd. D (SC)",Nova Scotia,-63.8861,-63.233,45.4903,45.8786
1212001,"Pictou, Subd. A (SC)",Nova Scotia,-63.1534,-62.5073,45.4417,45.8293
1212004,Pictou (T),Nova Scotia,-62.7428,-62.6852,45.6689,45.6991
1212006,"Pictou, Subd. B (SC)",Nova Scotia,-62.9499,-62.4201,45.2761,45.6615
1212008,Westville (T),Nova Scotia,-62.7417,-62.6848,45.5283,45.5774
1212009,Stellarton (T),Nova Scotia,-62.6969,-62.6495,45.5432,45.5786
1212011,"Pictou, Subd. C (SC)",Nova Scotia,-62.6947,-62.0914,45.3324,45.722
1212014,New Glasgow (T),Nova Scotia,-62.6679,-62.6243,45.5651,45.606
1212016,Trenton (T),Nova Scotia,-62.6511,-62.6081,45.5995,45.6264
1212019,Fisher's Grant 24 (IRI),Nova Scotia,-62.658,-62.6392,45.6647,45.6791
1212023,Merigomish Harbour 31 (IRI),Nova Scotia,-62.503,-62.4792,45.6188,45.6285
1213001,St. Mary's (MD),Nova Scotia,-62.7145,-61.6459,44.9255,45.3998
1213004,Guysborough (MD),Nova Scotia,-62.013,-60.9252,45.0985,45.6483
1213008,Mulgrave (T),Nova Scotia,-61.4401,-61.3829,45.5766,45.633
1214001,"Antigonish, Subd. A (SC)",Nova Scotia,-62.2352,-61.8891,45.3836,45.8873
1214002,Antigonish (T),Nova Scotia,-62.0151,-61.9713,45.6133,45.6341
1214006,"Antigonish, Subd. B (SC)",Nova Scotia,-61.9464,-61.436,45.3998,45.6939
1214010,Pomquet And Afton 23 (IRI),Nova Scotia,-61.8094,-61.7114,45.5848,45.609
1215001,"Inverness, Subd. C (SC)",Nova Scotia,-61.5287,-60.911,45.6163,45.9689
1215002,Port Hawkesbury (T),Nova Scotia,-61.3779,-61.327,45.6056,45.6425
1215006,"Inverness, Subd. B (SC)",Nova Scotia,-61.6015,-61.0059,45.936,46.2482
1215008,Whycocomagh 2 (IRI),Nova Scotia,-61.1595,-61.1084,45.9435,45.9823
1215011,"Inverness, Subd. A (SC)",Nova Scotia,-61.297,-60.558,45.9881,47.0429
1216001,"Richmond, Subd. C (SC)",Nova Scotia,-61.2007,-60.8881,45.4667,45.5961
1216006,"Richmond, Subd. A (SC)",Nova Scotia,-61.3735,-60.789,45.548,45.7751
1216011,"Richmond, Subd. B (SC)",Nova Scotia,-60.873,-60.2269,45.5661,45.8213
1216014,Chapel Island 5 (IRI),Nova Scotia,-60.7925,-60.7482,45.6748,45.7231
1217008,Membertou 28B (IRI),Nova Scotia,-60.1996,-60.1749,46.106,46.1218
1217020,Eskasoni 3 (IRI),Nova Scotia,-60.6674,-60.5654,45.9081,46.0019
1217030,Cape Breton (RGM),Nova Scotia,-60.8017,-59.6742,45.7279,46.3371
1218001,"Victoria, Subd. B (SC)",Nova Scotia,-61.0511,-60.3464,45.9054,46.4222
1218003,Wagmatcook 1 (IRI),Nova Scotia,-60.9324,-60.9039,46.0617,46.0993
1218006,"Victoria, Subd. A (SC)",Nova Scotia,-60.8156,-60.1351,46.2684,47.228
1301001,Saint Martins (P),New Brunswick,-65.7507,-65.0825,45.292,45.6151
1301002,St. Martins (VL),New Brunswick,-65.5615,-65.5314,45.3386,45.3631
1301004,Simonds (P),New Brunswick,-65.9554,-65.649,45.1937,45.4266
1301006,Saint John (C),New Brunswick,-66.2404,-65.8388,45.1415,45.3775
1301016,Musquash (P),New Brunswick,-66.4605,-66.2381,45.0582,45.2851
1302001,Grand Manan (P),New Brunswick,-66.7291,-66.688,44.614,44.6461
1302004,Campobello Island (RCR),New Brunswick,-66.98,-66.8892,44.8306,44.9573
1302006,West Isles (P),New Brunswick,-67.0221,-66.8963,44.9212,45.0547
1302008,Lepreau (P),New Brunswick,-66.593,-66.4585,45.0582,45.3129
1302011,Pennfield (P),New Brunswick,-66.7954,-66.5743,44.9364,45.313
1302012,Blacks Harbour (VL),New Brunswick,-66.8189,-66.7597,45.0402,45.0811
1302014,Clarendon (P),New Brunswick,-66.7863,-66.4597,45.3123,45.5013
1302016,Saint George (P),New Brunswick,-66.9353,-66.7653,45.0178,45.5027
1302018,St. George (TV),New Brunswick,-66.8665,-66.7983,45.1022,45.1513
1302021,Saint Patrick (P),New Brunswick,-67.0949,-66.9053,45.1215,45.3399
1302024,Saint Andrews (P),New Brunswick,-67.0992,-67.0311,45.0916,45.1683
1302026,Saint Andrews (TV),New Brunswick,-67.0877,-67.0368,45.0544,45.1013
1302028,Saint Croix (P),New Brunswick,-67.1625,-67.0715,45.1058,45.2916
1302031,Dufferin (P),New Brunswick,-67.2586,-67.1599,45.1649,45.2011
1302034,Saint Stephen (P),New Brunswick,-67.4063,-67.2437,45.125,45.2834
1302037,St. Stephen (TV),New Brunswick,-67.3293,-67.2497,45.1476,45.2089
1302039,Saint James (P),New Brunswick,-67.5037,-67.1527,45.1789,45.5103
1302042,Saint David (P),New Brunswick,-67.275,-67.1176,45.1784,45.3937
1302044,Dumbarton (P),New Brunswick,-67.1902,-66.923,45.2778,45.5049
1302052,Grand Manan (VL),New Brunswick,-66.9082,-66.6913,44.5703,44.8008
1303001,Blissville (P),New Brunswick,-66.7922,-66.3747,45.4988,45.7355
1303004,Gladstone (P),New Brunswick,-66.9363,-66.548,45.5014,45.756
1303005,Tracy (VL),New Brunswick,-66.73,-66.6406,45.6408,45.71
1303006,Fredericton Junction (VL),New Brunswick,-66.6585,-66.5689,45.6307,45.6892
1303008,Lincoln (P),New Brunswick,-66.715,-66.4743,45.7355,45.9132
1303011,Burton (P),New Brunswick,-66.5557,-66.2506,45.7175,45.8904
1303012,Oromocto (TV),New Brunswick,-66.5348,-66.44,45.8114,45.8615
1303013,Oromocto 26 (IRI),New Brunswick,-66.4677,-66.4599,45.8482,45.8564
1303014,Sheffield (P),New Brunswick,-66.4319,-66.1,45.862,46.1531
1303016,Maugerville (P),New Brunswick,-66.5819,-65.977,45.8571,46.3965
1303018,Northfield (P),New Brunswick,-66.1575,-65.8538,46.0414,46.3597
1304001,Petersville (P),New Brunswick,-66.5635,-66.1662,45.3126,45.6922
1304004,Gagetown (P),New Brunswick,-66.3955,-66.1256,45.6344,45.8606
1304005,Gagetown (VL),New Brunswick,-66.2104,-66.1127,45.7136,45.8262
1304006,Hampstead (P),New Brunswick,-66.2792,-66.051,45.5229,45.7567
1304008,Wickham (P),New Brunswick,-66.1009,-65.8589,45.6045,45.7866
1304011,Cambridge (P),New Brunswick,-66.1664,-65.9662,45.7096,45.8895
1304013,Cambridge-Narrows (VL),New Brunswick,-66.0638,-65.8682,45.7246,45.8913
1304014,Johnston (P),New Brunswick,-65.941,-65.6691,45.7379,46.0519
1304016,Brunswick (P),New Brunswick,-65.7491,-65.3426,45.871,46.2701
1304018,Waterborough (P),New Brunswick,-66.0517,-65.4914,45.8745,46.2848
1304021,Canning (P),New Brunswick,-66.2517,-65.9195,45.8329,46.12
1304022,Minto (VL),New Brunswick,-66.1043,-66.0212,46.0552,46.1209
1304024,Chipman (P),New Brunswick,-66.0349,-65.5695,46.0728,46.3366
1304025,Chipman (VL),New Brunswick,-65.9228,-65.847,46.1437,46.1966
1305001,Hammond (P),New Brunswick,-65.5904,-65.1194,45.4846,45.6457
1305004,Upham (P),New Brunswick,-65.7924,-65.5511,45.4219,45.5893
1305006,Hampton (P),New Brunswick,-65.9098,-65.7407,45.3994,45.5457
1305007,Hampton (TV),New Brunswick,-65.9058,-65.8017,45.4914,45.5642
1305008,Rothesay (P),New Brunswick,-65.9061,-65.8454,45.3824,45.4144
1305011,Westfield (P),New Brunswick,-66.4603,-66.0573,45.2219,45.4644
1305014,Kingston (P),New Brunswick,-66.1661,-65.863,45.3381,45.6015
1305015,Grand Bay-Westfield (TV),New Brunswick,-66.3275,-66.1712,45.2834,45.4001
1305016,Norton (P),New Brunswick,-65.9352,-65.6366,45.513,45.6587
1305018,Norton (VL),New Brunswick,-65.8182,-65.6442,45.5994,45.7021
1305021,Sussex (P),New Brunswick,-65.6673,-65.3911,45.5874,45.7503
1305022,Sussex (TV),New Brunswick,-65.5375,-65.476,45.7065,45.7358
1305023,Sussex Corner (VL),New Brunswick,-65.4915,-65.4404,45.6869,45.7326
1305024,Waterford (P),New Brunswick,-65.4292,-65.1311,45.5988,45.7231
1305026,Cardwell (P),New Brunswick,-65.4612,-65.1606,45.6991,45.9188
1305028,Havelock (P),New Brunswick,-65.5221,-65.2596,45.8275,46.0988
1305031,Studholm (P),New Brunswick,-65.7584,-65.3838,45.6562,45.9736
1305034,Springfield (P),New Brunswick,-65.9446,-65.6568,45.5661,45.8086
1305036,Kars (P),New Brunswick,-66.0519,-65.8888,45.546,45.6785
1305038,Greenwich (P),New Brunswick,-66.2475,-66.0198,45.4252,45.6032
1305045,Rothesay (TV),New Brunswick,-66.0339,-65.9006,45.3451,45.418
1305057,Quispamsis (TV),New Brunswick,-66.0037,-65.8724,45.3899,45.5043
1306001,Hopewell (P),New Brunswick,-64.8187,-64.5465,45.7356,45.8686
1306003,Riverside-Albert (VL),New Brunswick,-64.751,-64.7145,45.7319,45.7589
1306004,Harvey (P),New Brunswick,-64.9402,-64.6105,45.5934,45.8163
1306006,Alma (VL),New Brunswick,-64.9694,-64.8812,45.5996,45.7188
1306007,Alma (P),New Brunswick,-65.1325,-64.9258,45.5269,45.7515
1306008,Elgin (P),New Brunswick,-65.2238,-64.8187,45.6492,45.9434
1306011,Hillsborough (P),New Brunswick,-64.95,-64.5766,45.8155,45.9932
1306014,Coverdale (P),New Brunswick,-65.0346,-64.6933,45.927,46.0629
1306020,Riverview (TV),New Brunswick,-64.8907,-64.7301,46.0235,46.0917
1306025,Hillsborough (VL),New Brunswick,-64.6778,-64.6248,45.8986,45.9451
1307001,Westmorland (P),New Brunswick,-64.3272,-64.0426,45.8415,46.0882
1307002,Port Elgin (VL),New Brunswick,-64.1009,-64.0738,46.039,46.0586
1307004,Botsford (P),New Brunswick,-64.1622,-63.7716,46.0456,46.184
1307005,Beaubassin East (RCR),New Brunswick,-64.5003,-64.1293,46.0824,46.239
1307007,Cap-Pel (VL),New Brunswick,-64.3312,-64.2269,46.1921,46.237
1307008,Sackville (P),New Brunswick,-64.5526,-64.1442,45.7207,46.1412
1307009,Sackville (TV),New Brunswick,-64.4563,-64.3134,45.8669,45.9692
1307011,Dorchester (P),New Brunswick,-64.5922,-64.4814,45.8371,46.0937
1307012,Dorchester (VL),New Brunswick,-64.5284,-64.4844,45.8862,45.9202
1307013,Memramcook (VL),New Brunswick,-64.7012,-64.4865,45.8628,46.076
1307014,Fort Folly 1 (IRI),New Brunswick,-64.5075,-64.4869,45.8865,45.8945
1307016,Shediac (P),New Brunswick,-64.7676,-64.3637,46.0834,46.2788
1307019,Moncton (P),New Brunswick,-65.1214,-64.5526,46.0354,46.2729
1307022,Moncton (C),New Brunswick,-64.9153,-64.686,46.0492,46.177
1307024,Salisbury (P),New Brunswick,-65.4164,-65.0335,45.8437,46.263
1307028,Salisbury (VL),New Brunswick,-65.0798,-65.0109,46.0183,46.0565
1307029,Petitcodiac (VL),New Brunswick,-65.2143,-65.1395,45.9114,45.9634
1307045,Dieppe (C),New Brunswick,-64.7651,-64.607,46.0254,46.1304
1307052,Shediac (TV),New Brunswick,-64.5967,-64.4784,46.0832,46.2791
1308001,Dundas (P),New Brunswick,-64.8792,-64.5102,46.2707,46.4034
1308002,Cocagne (RCR),New Brunswick,-64.6901,-64.6018,46.2814,46.4426
1308003,Buctouche 16 (IRI),New Brunswick,-64.7651,-64.7522,46.4479,46.4551
1308004,Wellington (P),New Brunswick,-64.8611,-64.6087,46.3646,46.5846
1308005,Bouctouche (TV),New Brunswick,-64.7881,-64.6903,46.4451,46.4895
1308006,Saint Mary (P),New Brunswick,-64.9967,-64.7502,46.2939,46.5141
1308007,Saint-Antoine (VL),New Brunswick,-64.7783,-64.7267,46.3517,46.3788
1308008,Saint-Paul (P),New Brunswick,-65.1434,-64.8595,46.2643,46.4317
1308010,Harcourt (P),New Brunswick,-65.8517,-65.0737,46.2568,46.4927
1308012,Huskisson (P),New Brunswick,-65.714,-65.2621,46.4919,46.6729
1308014,Weldford (P),New Brunswick,-65.4235,-64.8599,46.3737,46.6114
1308015,Richibucto 15 (IRI),New Brunswick,-65.07,-64.9563,46.5529,46.6113
1308016,Richibucto (P),New Brunswick,-65.0517,-64.7085,46.5113,46.7108
1308017,Rexton (VL),New Brunswick,-64.904,-64.8541,46.6318,46.6664
1308018,Richibucto (TV),New Brunswick,-64.9112,-64.8494,46.6561,46.7024
1308019,Saint-Charles (P),New Brunswick,-65.2451,-64.7897,46.6097,46.7656
1308020,Indian Island 28 (IRI),New Brunswick,-64.7975,-64.7845,46.6872,46.6917
1308021,Saint-Louis (P),New Brunswick,-65.3862,-64.8652,46.6097,46.806
1308022,Saint-Louis de Kent (VL),New Brunswick,-64.9966,-64.9625,46.7248,46.7523
1308024,Acadieville (P),New Brunswick,-65.5136,-65.1451,46.6093,46.8449
1308026,Carleton (P),New Brunswick,-65.2043,-64.8086,46.7299,47.058
1309001,Hardwicke (P),New Brunswick,-65.2229,-64.7957,46.9264,47.1309
1309004,Glenelg (P),New Brunswick,-65.5072,-65.0589,46.8233,47.0823
1309006,Chatham (P),New Brunswick,-65.45,-65.3029,46.9889,47.0818
1309011,Derby (P),New Brunswick,-65.8183,-65.5571,46.8242,46.9897
1309014,Nelson (P),New Brunswick,-65.7894,-65.4013,46.719,46.9555
1309016,Rogersville (P),New Brunswick,-65.6634,-65.2394,46.641,46.8717
1309017,Rogersville (VL),New Brunswick,-65.4535,-65.4032,46.7173,46.7516
1309018,Blackville (P),New Brunswick,-66.0127,-65.5688,46.3975,46.8999
1309019,Blackville (VL),New Brunswick,-65.8788,-65.796,46.7085,46.7676
1309021,Blissfield (P),New Brunswick,-66.2971,-65.7976,46.3362,46.8702
1309022,Doaktown (VL),New Brunswick,-66.1786,-66.0528,46.5301,46.5919
1309023,Red Bank 4 (IRI),New Brunswick,-65.9339,-65.8233,46.9019,46.959
1309026,Southesk (P),New Brunswick,-67.0162,-65.5846,46.7356,47.315
1309027,Upper Miramichi (RCR),New Brunswick,-66.9066,-66.1057,46.294,46.8077
1309028,Northesk (P),New Brunswick,-67.0483,-65.6042,46.9338,47.5509
1309031,Newcastle (P),New Brunswick,-65.76,-65.3521,46.9853,47.3135
1309034,Big Hole Tract 8 (South Half) (IRI),New Brunswick,-65.8382,-65.7537,47.011,47.0854
1309035,Eel Ground 2 (IRI),New Brunswick,-65.6542,-65.6125,46.9616,47.023
1309036,Alnwick (P),New Brunswick,-65.4673,-64.9047,47.0814,47.4125
1309038,Neguac (VL),New Brunswick,-65.1264,-65.023,47.2178,47.2925
1309044,Esgenopetitj 14 (IRI),New Brunswick,-65.162,-65.0997,47.1982,47.2465
1309047,Tabusintac 9 (IRI),New Brunswick,-65.191,-65.0638,47.3125,47.3674
1309050,Miramichi (C),New Brunswick,-65.6173,-65.3402,46.9247,47.1073
1310001,New Maryland (P),New Brunswick,-67.0568,-66.6192,45.5026,45.8918
1310002,New Maryland (VL),New Brunswick,-66.7197,-66.6407,45.8541,45.9199
1310004,Manners Sutton (P),New Brunswick,-67.2958,-66.8462,45.5035,45.8129
1310005,Harvey (VL),New Brunswick,-67.022,-66.9918,45.7213,45.7342
1310006,McAdam (VL),New Brunswick,-67.3477,-67.265,45.574,45.6115
1310007,McAdam (P),New Brunswick,-67.5713,-67.2121,45.5058,45.8852
1310008,North Lake (P),New Brunswick,-67.8063,-67.5,45.6018,45.9435
1310011,Canterbury (P),New Brunswick,-67.717,-67.2916,45.6876,45.9963
1310012,Canterbury (VL),New Brunswick,-67.4843,-67.4508,45.8758,45.9105
1310013,Meductic (VL),New Brunswick,-67.5067,-67.4603,45.9731,46.0008
1310014,Dumfries (P),New Brunswick,-67.3337,-67.0689,45.7098,45.9916
1310016,Prince William (P),New Brunswick,-67.2526,-66.9309,45.6011,45.9281
1310017,Hanwell (RCR),New Brunswick,-66.9181,-66.6955,45.7436,45.9588
1310018,Kingsclear (P),New Brunswick,-66.9948,-66.6735,45.7707,45.9865
1310019,Kingsclear 6 (IRI),New Brunswick,-66.8605,-66.8075,45.8936,45.9582
1310021,Queensbury (P),New Brunswick,-67.2263,-66.8852,45.8752,46.1227
1310024,Southampton (P),New Brunswick,-67.5003,-67.1362,45.9547,46.2435
1310025,Millville (VL),New Brunswick,-67.2199,-67.1656,46.1041,46.1606
1310026,Bright (P),New Brunswick,-67.2941,-66.8203,45.9263,46.2959
1310028,Douglas (P),New Brunswick,-67.2509,-66.5978,45.9645,46.6561
1310031,Saint Marys (P),New Brunswick,-66.6917,-66.201,45.9118,46.3546
1310032,Fredericton (C),New Brunswick,-66.7834,-66.5498,45.8684,46.0223
1310034,Devon 30 (IRI),New Brunswick,-66.634,-66.5865,45.9707,46.0361
1310036,Stanley (P),New Brunswick,-66.9639,-66.4983,46.1352,46.9274
1310037,Stanley (VL),New Brunswick,-66.7617,-66.6859,46.2607,46.313
1310054,Nackawic (TV),New Brunswick,-67.2531,-67.2144,45.9676,46.024
1311001,Richmond (P),New Brunswick,-67.7816,-67.6322,45.9423,46.2275
1311004,Woodstock (P),New Brunswick,-67.6939,-67.4987,45.9327,46.1969
1311005,Woodstock 23 (IRI),New Brunswick,-67.644,-67.5689,46.0973,46.1112
1311006,Woodstock (TV),New Brunswick,-67.631,-67.5658,46.1248,46.1784
1311008,Northampton (P),New Brunswick,-67.5705,-67.3201,46.0013,46.2137
1311011,Brighton (P),New Brunswick,-67.553,-67.14,46.1987,46.4386
1311012,Hartland (TV),New Brunswick,-67.5333,-67.471,46.2842,46.3132
1311014,Wakefield (P),New Brunswick,-67.782,-67.5015,46.176,46.3069
1311018,Wilmot (P),New Brunswick,-67.7842,-67.6075,46.2581,46.4413
1311019,Centreville (VL),New Brunswick,-67.7278,-67.6873,46.4197,46.4416
1311021,Simonds (P),New Brunswick,-67.6715,-67.5342,46.292,46.4474
1311024,Peel (P),New Brunswick,-67.6137,-67.424,46.3402,46.4536
1311026,Aberdeen (P),New Brunswick,-67.4925,-67.0308,46.4352,46.574
1311027,Florenceville-Bristol (TV),New Brunswick,-67.6485,-67.5468,46.4169,46.4799
1311028,Kent (P),New Brunswick,-67.7231,-66.8673,46.4529,46.7741
1311030,Bath (VL),New Brunswick,-67.6028,-67.5717,46.4946,46.5254
1311031,Wicklow (P),New Brunswick,-67.7883,-67.5745,46.419,46.6013
1312001,Andover (P),New Brunswick,-67.7896,-67.7037,46.5923,46.8219
1312002,Aroostook (VL),New Brunswick,-67.7345,-67.7183,46.79,46.8215
1312004,Perth (P),New Brunswick,-67.7246,-67.4604,46.6012,46.8127
1312006,Perth-Andover (VL),New Brunswick,-67.733,-67.6885,46.7133,46.7664
1312007,Tobique 20 (IRI),New Brunswick,-67.7242,-67.63,46.7595,46.8284
1312008,Gordon (P),New Brunswick,-67.5573,-66.7446,46.6552,46.9532
1312009,Plaster Rock (VL),New Brunswick,-67.4044,-67.3776,46.89,46.9184
1312011,Lorne (P),New Brunswick,-67.5191,-66.7616,46.9522,47.4132
1312014,Denmark (P),New Brunswick,-67.7154,-67.2066,46.8111,47.4407
1312016,Grand Falls (P),New Brunswick,-67.7899,-67.6764,46.7947,47.0322
1312019,Grand Falls (TV),New Brunswick,-67.7902,-67.7122,47.0231,47.0672
1312021,Drummond (P),New Brunswick,-67.7379,-67.2944,46.9446,47.5685
1312023,Drummond (VL),New Brunswick,-67.7019,-67.6541,47.017,47.0562
1313001,Saint-Andr (P),New Brunswick,-67.8453,-67.6696,47.058,47.2317
1313002,Saint-Andr (RCR),New Brunswick,-67.7724,-67.7412,47.0616,47.1109
1313004,Saint-Lonard (P),New Brunswick,-67.9515,-67.689,47.0915,47.4494
1313006,Saint-Lonard (TV),New Brunswick,-67.939,-67.8998,47.1549,47.188
1313008,Notre-Dame-de-Lourdes (P),New Brunswick,-67.9778,-67.6887,47.2077,47.5356
1313011,Sainte-Anne (P),New Brunswick,-68.1025,-67.6885,47.1908,47.5937
1313012,Sainte-Anne-de-Madawaska (VL),New Brunswick,-68.0488,-67.9917,47.234,47.2736
1313014,Rivire-Verte (VL),New Brunswick,-68.1663,-68.1256,47.3048,47.3437
1313015,Rivire-Verte (P),New Brunswick,-68.1869,-67.7641,47.2801,47.6835
1313018,Saint-Basile (P),New Brunswick,-68.2891,-68.0869,47.3545,47.5201
1313020,St. Basile 10 (IRI),New Brunswick,-68.319,-68.2808,47.3585,47.3807
1313022,Saint-Joseph (P),New Brunswick,-68.3865,-68.1937,47.396,47.7785
1313024,Saint-Jacques (P),New Brunswick,-68.5832,-68.1765,47.3726,47.7908
1313027,Edmundston (C),New Brunswick,-68.4427,-68.1455,47.3176,47.4504
1313028,Madawaska (P),New Brunswick,-68.2515,-68.0485,47.5059,47.7273
1313032,Saint-Hilaire (P),New Brunswick,-68.4743,-68.3809,47.2813,47.3807
1313033,St. Hilaire (VL),New Brunswick,-68.4178,-68.3747,47.286,47.3095
1313034,Baker Brook (P),New Brunswick,-68.6985,-68.4491,47.2822,47.4224
1313035,Baker-Brook (VL),New Brunswick,-68.5354,-68.4701,47.2935,47.3255
1313036,Lac-Baker (P),New Brunswick,-68.7711,-68.5722,47.3024,47.3708
1313037,Lac Baker (VL),New Brunswick,-68.7353,-68.5773,47.3013,47.3831
1313038,Clair (P),New Brunswick,-68.71,-68.5699,47.2392,47.3338
1313039,Clair (VL),New Brunswick,-68.6478,-68.5933,47.2426,47.2875
1313041,Saint-Franois (P),New Brunswick,-69.0533,-68.6549,47.1795,47.3587
1313042,Saint-Franois de Madawaska (VL),New Brunswick,-68.7373,-68.6925,47.2377,47.2622
1314001,Durham (P),New Brunswick,-66.164,-65.9153,47.5643,47.9682
1314003,Colborne (P),New Brunswick,-66.383,-66.1163,47.5153,48.0129
1314004,Charlo (VL),New Brunswick,-66.3801,-66.2462,47.9581,48.0328
1314005,Balmoral (P),New Brunswick,-66.6545,-66.3714,47.4501,47.9898
1314006,Balmoral (VL),New Brunswick,-66.5691,-66.379,47.9273,47.998
1314008,Dalhousie (P),New Brunswick,-66.6544,-66.3259,47.9419,48.0893
1314010,Eel River 3 (IRI),New Brunswick,-66.4063,-66.3705,48.0244,48.0381
1314011,Eel River Crossing (VL),New Brunswick,-66.5961,-66.3714,47.9574,48.0346
1314012,Addington (P),New Brunswick,-66.9091,-66.6543,47.399,48.0012
1314013,Atholville (VL),New Brunswick,-66.8188,-66.5817,47.8698,48.0094
1314014,Campbellton (C),New Brunswick,-66.7069,-66.6004,47.9747,48.0253
1314015,Tide Head (VL),New Brunswick,-66.8387,-66.7261,47.9579,48.0031
1314016,Eldon (P),New Brunswick,-67.3494,-66.8757,47.3627,47.9876
1314017,Dalhousie (TV),New Brunswick,-66.43,-66.3499,48.0236,48.0734
1314020,Kedgwick (RCR),New Brunswick,-67.5696,-67.2405,47.5972,47.9214
1314021,Saint-Quentin (P),New Brunswick,-68.3827,-67.1706,47.4017,48.0
1314022,Saint-Quentin (TV),New Brunswick,-67.3984,-67.3801,47.495,47.5248
1314025,Belledune (VL),New Brunswick,-66.116,-65.794,47.7999,47.9279
1314026,Indian Ranch (IRI),New Brunswick,-66.4096,-66.3832,48.0329,48.0405
1315002,Tracadie (RGM),New Brunswick,-65.3341,-64.8079,47.3494,47.6512
1315006,Allardville (P),New Brunswick,-65.6299,-65.1743,47.2762,47.5676
1315008,Bathurst (P),New Brunswick,-66.2172,-65.371,47.2325,47.6938
1315010,Pabineau 11 (IRI),New Brunswick,-65.6946,-65.6332,47.5266,47.5383
1315011,Bathurst (C),New Brunswick,-65.7232,-65.5332,47.5725,47.6778
1315012,Beresford (P),New Brunswick,-66.1077,-65.7045,47.5773,47.8566
1315013,Pointe-Verte (VL),New Brunswick,-65.8074,-65.7379,47.8267,47.8805
1315014,Petit-Rocher (VL),New Brunswick,-65.7402,-65.7067,47.7672,47.8017
1315015,Beresford (TV),New Brunswick,-65.7442,-65.6563,47.6637,47.7349
1315016,New Bandon (P),New Brunswick,-65.4491,-65.0305,47.525,47.8331
1315017,Saint-Lolin (VL),New Brunswick,-65.2068,-65.1366,47.7339,47.7867
1315019,Paquetville (P),New Brunswick,-65.3272,-65.0142,47.5338,47.7127
1315020,Paquetville (VL),New Brunswick,-65.1312,-65.0823,47.6501,47.6875
1315021,Saint-Isidore (P),New Brunswick,-65.2076,-64.9963,47.472,47.6325
1315022,Saint-Isidore (VL),New Brunswick,-65.1009,-64.9849,47.5318,47.5798
1315024,Inkerman (P),New Brunswick,-65.0329,-64.7662,47.6174,47.7086
1315026,Caraquet (P),New Brunswick,-65.0708,-64.7387,47.66,47.8281
1315027,Bas-Caraquet (VL),New Brunswick,-64.8786,-64.7829,47.751,47.8093
1315028,Caraquet (TV),New Brunswick,-65.0426,-64.8569,47.7215,47.8042
1315029,Shippagan (P),New Brunswick,-64.7771,-64.4657,47.6857,48.0221
1315030,Le Goulet (VL),New Brunswick,-64.7246,-64.6663,47.6957,47.7225
1315031,Shippagan (TV),New Brunswick,-64.7585,-64.6962,47.7137,47.7553
1315032,Lamque (TV),New Brunswick,-64.658,-64.5891,47.7891,47.8367
1315033,Sainte-Marie-Saint-Raphal (VL),New Brunswick,-64.6068,-64.5496,47.7636,47.8244
1315036,Bertrand (VL),New Brunswick,-65.1449,-65.0177,47.6965,47.8042
1315037,Nigadoo (VL),New Brunswick,-65.7664,-65.7051,47.7226,47.7534
1315038,Grande-Anse (VL),New Brunswick,-65.2183,-65.1175,47.7778,47.8266
1315040,Maisonnette (VL),New Brunswick,-65.0672,-64.962,47.8044,47.8376
2401023,Les les-de-la-Madeleine (M),Quebec,-62.0236,-61.4911,47.2115,47.579
2401042,Grosse-le (M),Quebec,-61.6267,-61.1417,47.5667,47.84
2402005,Perc (V),Quebec,-64.517,-64.1437,48.4128,48.6967
2402010,Sainte-Thrse-de-Gasp (M),Quebec,-64.496,-64.3904,48.4053,48.4793
2402015,Grande-Rivire (V),Quebec,-64.6074,-64.4494,48.3755,48.4877
2402028,Chandler (V),Quebec,-64.9575,-64.5756,48.2065,48.5035
2402047,Port-Daniel--Gascons (M),Quebec,-65.1353,-64.7735,48.1061,48.3283
2402902,Mont-Alexandre (NO),Quebec,-65.5012,-64.4507,48.3284,48.695
2403005,Gasp (V),Quebec,-64.7433,-64.1589,48.6944,49.1336
2403010,Cloridorme (CT),Quebec,-65.0562,-64.7811,49.1072,49.2095
2403015,Petite-Valle (M),Quebec,-65.0588,-64.9604,49.1485,49.2237
2403020,Grande-Valle (M),Quebec,-65.1956,-65.0543,49.095,49.2309
2403025,Murdochville (V),Quebec,-65.5335,-65.4177,48.9265,48.9989
2403902,Rivire-Saint-Jean (NO),Quebec,-65.502,-64.6506,48.679,49.1558
2403904,Collines-du-Basque (NO),Quebec,-65.5327,-65.053,48.8236,49.0994
2404005,Sainte-Madeleine-de-la-Rivire-Madeleine (M),Quebec,-65.4972,-65.1876,49.0961,49.2541
2404010,Saint-Maxime-du-Mont-Louis (M),Quebec,-65.7644,-65.4967,49.1237,49.257
2404015,Mont-Saint-Pierre (VL),Quebec,-65.851,-65.7472,49.1237,49.2389
2404020,Rivire--Claude (M),Quebec,-65.9927,-65.7472,49.0902,49.2313
2404025,Marsoui (VL),Quebec,-66.134,-65.9388,49.0591,49.2253
2404030,La Martre (M),Quebec,-66.3065,-66.0954,49.036,49.2121
2404037,Sainte-Anne-des-Monts (V),Quebec,-66.6084,-66.2017,49.0116,49.1811
2404047,Cap-Chat (V),Quebec,-66.9086,-66.5473,48.9851,49.1147
2404902,Mont-Albert (NO),Quebec,-66.6461,-65.2952,48.5678,49.1633
2404904,Coule-des-Adolphe (NO),Quebec,-66.7158,-66.5399,48.902,49.0192
2405010,Shigawake (M),Quebec,-65.1869,-65.0321,48.0828,48.2429
2405015,Saint-Godefroi (CT),Quebec,-65.2333,-65.0948,48.0694,48.2271
2405020,Hope Town (M),Quebec,-65.2426,-65.1261,48.0406,48.148
2405025,Hope (CT),Quebec,-65.2886,-65.1797,48.031,48.2134
2405032,Paspbiac (V),Quebec,-65.3449,-65.2262,48.0148,48.1977
2405040,New Carlisle (M),Quebec,-65.4069,-65.296,48.0021,48.1158
2405045,Bonaventure (V),Quebec,-65.5365,-65.3733,48.0004,48.154
2405050,Saint-Elzar (M),Quebec,-65.6406,-65.2886,48.0969,48.2681
2405055,Saint-Simon (PE),Quebec,-65.6139,-65.4934,48.0638,48.1687
2405060,Caplan (M),Quebec,-65.7783,-65.5833,48.0782,48.1823
2405065,Saint-Alphonse (M),Quebec,-65.7225,-65.5344,48.1356,48.2589
2405070,New Richmond (V),Quebec,-65.9077,-65.6794,48.1176,48.2919
2405077,Cascapdia--Saint-Jules (M),Quebec,-66.1001,-65.8135,48.2056,48.3283
2405902,Rivire-Bonaventure (NO),Quebec,-66.2798,-64.9574,48.1977,48.6792
2406005,Maria (M),Quebec,-66.089,-65.9048,48.1348,48.2642
2406013,Carleton-sur-Mer (V),Quebec,-66.287,-66.0303,48.0856,48.2417
2406020,Nouvelle (M),Quebec,-66.564,-66.2613,48.0608,48.2438
2406025,Escuminac (M),Quebec,-66.5679,-66.3727,48.0382,48.1902
2406030,Pointe--la-Croix (M),Quebec,-66.9427,-66.5625,48.0031,48.2438
2406035,Ristigouche-Partie-Sud-Est (CT),Quebec,-66.8933,-66.7464,47.9914,48.0579
2406040,Saint-Andr-de-Restigouche (M),Quebec,-67.1071,-66.8687,48.0103,48.1279
2406045,Matapdia (M),Quebec,-67.029,-66.8777,47.8921,48.033
2406050,Saint-Alexis-de-Matapdia (M),Quebec,-67.1364,-66.9772,47.9191,48.0381
2406055,Saint-Franois-d'Assise (M),Quebec,-67.2779,-67.0639,47.8818,48.0785
2406060,L'Ascension-de-Patapdia (M),Quebec,-67.3596,-67.1761,47.8755,47.9867
2406802,Gesgapegiag (IRI),Quebec,-65.9515,-65.9101,48.1933,48.2098
2406804,Listuguj (IRI),Quebec,-66.8059,-66.6767,48.0068,48.1136
2406902,Rivire-Nouvelle (NO),Quebec,-66.9754,-66.2191,48.1524,48.4832
2406904,Ruisseau-Ferguson (NO),Quebec,-67.668,-67.2319,47.8443,48.1953
2407005,Sainte-Marguerite-Marie (M),Quebec,-67.1706,-66.9921,48.2592,48.3665
2407010,Sainte-Florence (M),Quebec,-67.3378,-67.1333,48.2147,48.3235
2407018,Causapscal (V),Quebec,-67.3354,-67.1066,48.3002,48.4549
2407025,Albertville (M),Quebec,-67.4633,-67.2766,48.2659,48.3793
2407030,Saint-Lon-le-Grand (PE),Quebec,-67.6069,-67.4243,48.295,48.4409
2407035,Saint-Znon-du-Lac-Humqui (PE),Quebec,-67.6903,-67.5096,48.2401,48.3835
2407040,Sainte-Irne (PE),Quebec,-67.7448,-67.5164,48.3552,48.4921
2407047,Amqui (V),Quebec,-67.5351,-67.3389,48.4102,48.5602
2407057,Lac-au-Saumon (M),Quebec,-67.4584,-67.2674,48.3524,48.4555
2407065,Saint-Alexandre-des-Lacs (PE),Quebec,-67.3652,-67.1756,48.4201,48.5386
2407070,Saint-Tharcisius (PE),Quebec,-67.3939,-67.2216,48.4909,48.5978
2407075,Saint-Vianney (M),Quebec,-67.5364,-67.3025,48.5454,48.7002
2407080,Val-Brillant (M),Quebec,-67.6684,-67.4706,48.4735,48.5753
2407085,Sayabec (M),Quebec,-67.7953,-67.5736,48.5242,48.666
2407090,Saint-Clophas (PE),Quebec,-67.8232,-67.6398,48.4229,48.5464
2407095,Saint-Mose (PE),Quebec,-67.9809,-67.7547,48.4651,48.5839
2407100,Saint-Nol (VL),Quebec,-67.92,-67.7207,48.5638,48.6432
2407105,Saint-Damase (PE),Quebec,-67.9242,-67.6768,48.5975,48.7161
2407902,Routhierville (NO),Quebec,-67.375,-66.8371,48.0319,48.3027
2407904,Rivire-Vaseuse (NO),Quebec,-67.6459,-67.2982,48.135,48.3165
2407906,Rivire-Patapdia-Est (NO),Quebec,-67.6769,-67.6019,48.1168,48.1644
2407908,Lac-Casault (NO),Quebec,-67.3331,-65.9491,48.2973,48.6736
2407910,Ruisseau-des-Mineurs (NO),Quebec,-67.1316,-66.2902,48.453,48.7948
2407912,Lac-Alfred (NO),Quebec,-67.8335,-67.6486,48.3228,48.4516
2407914,Lac-Matapdia (NO),Quebec,-67.6168,-67.4112,48.5155,48.6249
2408005,Les Mchins (M),Quebec,-67.1166,-66.6939,48.8169,49.0341
2408010,Saint-Jean-de-Cherbourg (PE),Quebec,-67.2124,-67.0006,48.7867,48.8995
2408015,Grosses-Roches (M),Quebec,-67.2216,-67.046,48.8714,48.9644
2408023,Sainte-Flicit (M),Quebec,-67.4101,-67.1682,48.8355,48.9302
2408030,Saint-Adelme (PE),Quebec,-67.4075,-67.1808,48.7534,48.8819
2408035,Saint-Ren-de-Matane (M),Quebec,-67.5073,-67.0972,48.6297,48.8168
2408040,Sainte-Paule (M),Quebec,-67.6227,-67.4229,48.6151,48.7218
2408053,Matane (V),Quebec,-67.6234,-67.3429,48.7179,48.8796
2408065,Saint-Landre (PE),Quebec,-67.7043,-67.5119,48.6341,48.7851
2408073,Saint-Ulric (M),Quebec,-67.7944,-67.5723,48.6822,48.8143
2408080,Baie-des-Sables (M),Quebec,-67.9469,-67.7782,48.6588,48.7559
2408902,Rivire-Bonjour (NO),Quebec,-67.3088,-66.1067,48.5422,48.9578
2409005,La Rdemption (PE),Quebec,-68.0026,-67.7774,48.3623,48.4842
2409010,Saint-Charles-Garnier (PE),Quebec,-68.1355,-67.9424,48.265,48.3976
2409015,Les Hauteurs (M),Quebec,-68.2187,-68.0026,48.2969,48.4357
2409020,Sainte-Jeanne-d'Arc (PE),Quebec,-68.0855,-67.8764,48.3976,48.5358
2409025,Saint-Gabriel-de-Rimouski (M),Quebec,-68.2988,-68.0688,48.3488,48.4858
2409030,Saint-Donat (PE),Quebec,-68.3529,-68.1374,48.4359,48.5484
2409035,Sainte-Angle-de-Mrici (M),Quebec,-68.1981,-67.9621,48.4466,48.5637
2409040,Padoue (M),Quebec,-68.0618,-67.898,48.5395,48.6493
2409048,Mtis-sur-Mer (V),Quebec,-68.0727,-67.8678,48.6271,48.6929
2409055,Saint-Octave-de-Mtis (PE),Quebec,-68.1334,-67.9537,48.5414,48.6648
2409060,Grand-Mtis (M),Quebec,-68.141,-68.0421,48.5942,48.6662
2409065,Price (VL),Quebec,-68.1453,-68.1064,48.5894,48.613
2409070,Saint-Joseph-de-Lepage (PE),Quebec,-68.2343,-68.1176,48.5208,48.5981
2409077,Mont-Joli (V),Quebec,-68.2533,-68.1253,48.548,48.6416
2409085,Sainte-Flavie (PE),Quebec,-68.2954,-68.1312,48.5587,48.6415
2409092,Sainte-Luce (M),Quebec,-68.4267,-68.2353,48.4854,48.5836
2409902,Lac-des-Eaux-Mortes (NO),Quebec,-68.2571,-67.5858,47.9998,48.3623
2409904,Lac--la-Croix (NO),Quebec,-67.9424,-67.6178,48.1644,48.405
2410005,Esprit-Saint (M),Quebec,-68.6594,-68.406,47.9636,48.1323
2410010,La Trinit-des-Monts (PE),Quebec,-68.5591,-68.2662,48.0333,48.2294
2410015,Saint-Narcisse-de-Rimouski (PE),Quebec,-68.5977,-68.3339,48.1624,48.3403
2410025,Saint-Marcellin (PE),Quebec,-68.3745,-68.183,48.2635,48.4129
2410030,Saint-Anaclet-de-Lessard (PE),Quebec,-68.4795,-68.2717,48.3708,48.5137
2410043,Rimouski (V),Quebec,-68.8943,-68.3318,48.2803,48.5286
2410060,Saint-Valrien (PE),Quebec,-68.7342,-68.5047,48.221,48.3783
2410070,Saint-Fabien (PE),Quebec,-68.974,-68.732,48.2202,48.3589
2410075,Saint-Eugne-de-Ladrire (PE),Quebec,-68.8928,-68.5074,48.0659,48.3042
2410902,Lac-Huron (NO),Quebec,-68.5054,-67.9479,47.88,48.2958
2411005,Saint-Clment (PE),Quebec,-69.1866,-69.0299,47.8576,47.9871
2411010,Saint-Jean-de-Dieu (M),Quebec,-69.1353,-68.8112,47.9222,48.0687
2411015,Sainte-Rita (M),Quebec,-68.9923,-68.7697,47.8909,48.0039
2411020,Saint-Guy (M),Quebec,-68.8609,-68.6593,47.9504,48.1295
2411025,Saint-Mdard (M),Quebec,-68.9413,-68.7548,48.0106,48.1392
2411030,Sainte-Franoise (PE),Quebec,-69.1583,-68.9225,48.0185,48.1324
2411035,Saint-loi (PE),Quebec,-69.2759,-69.1003,47.9829,48.079
2411040,Trois-Pistoles (V),Quebec,-69.199,-69.1408,48.1103,48.1448
2411045,Notre-Dame-des-Neiges (M),Quebec,-69.2687,-69.0471,48.0442,48.178
2411050,Saint-Mathieu-de-Rioux (PE),Quebec,-69.0804,-68.8425,48.1054,48.233
2411055,Saint-Simon (PE),Quebec,-69.1383,-68.9274,48.1514,48.272
2411902,Lac-Boisbouscache (NO),Quebec,-69.0081,-68.7678,48.066,48.1876
2412005,Saint-Cyprien (M),Quebec,-69.0871,-68.8478,47.7945,47.9558
2412010,Saint-Hubert-de-Rivire-du-Loup (M),Quebec,-69.3562,-69.0165,47.6881,47.8784
2412015,Saint-Antonin (M),Quebec,-69.5519,-69.2717,47.6458,47.8213
2412020,Saint-Modeste (M),Quebec,-69.4691,-69.294,47.7449,47.8836
2412025,Saint-Franois-Xavier-de-Viger (M),Quebec,-69.3262,-69.1433,47.7555,47.9117
2412030,Saint-piphane (M),Quebec,-69.3854,-69.221,47.842,47.956
2412035,Saint-Paul-de-la-Croix (PE),Quebec,-69.2538,-69.1139,47.8887,48.0176
2412043,L'Isle-Verte (M),Quebec,-69.4293,-69.2066,47.9373,48.1094
2412045,Notre-Dame-des-Sept-Douleurs (PE),Quebec,-69.4952,-69.3878,47.9861,48.0634
2412057,Cacouna (M),Quebec,-69.5342,-69.3825,47.8621,47.9984
2412065,Saint-Arsne (PE),Quebec,-69.4838,-69.3329,47.8552,47.9689
2412072,Rivire-du-Loup (V),Quebec,-69.5857,-69.4325,47.7556,47.891
2412080,Notre-Dame-du-Portage (M),Quebec,-69.6949,-69.5166,47.7127,47.8106
2413005,Dgelis (V),Quebec,-68.7729,-68.3824,47.4257,47.8325
2413010,Saint-Jean-de-la-Lande (M),Quebec,-68.8012,-68.5723,47.3675,47.4945
2413015,Packington (PE),Quebec,-68.9118,-68.7107,47.4038,47.5311
2413020,Saint-Marc-du-Lac-Long (PE),Quebec,-68.9903,-68.745,47.3273,47.4743
2413025,Rivire-Bleue (M),Quebec,-69.1128,-68.9117,47.3001,47.5252
2413030,Saint-Eusbe (PE),Quebec,-69.0185,-68.8186,47.4689,47.6035
2413040,Saint-Juste-du-Lac (M),Quebec,-68.8557,-68.5917,47.5974,47.8452
2413045,Auclair (M),Quebec,-68.727,-68.5609,47.6604,47.8248
2413050,Lejeune (M),Quebec,-68.6758,-68.3826,47.6358,47.8907
2413055,Biencourt (M),Quebec,-68.691,-68.3988,47.8466,48.0138
2413060,Lac-des-Aigles (M),Quebec,-68.7532,-68.5816,47.9199,48.0658
2413065,Saint-Michel-du-Squatec (M),Quebec,-68.9113,-68.4644,47.6859,47.9618
2413073,Tmiscouata-sur-le-Lac (V),Quebec,-68.9862,-68.6785,47.5266,47.8201
2413075,Saint-Pierre-de-Lamy (M),Quebec,-69.1041,-68.899,47.7199,47.851
2413080,Saint-Louis-du-Ha! Ha! (PE),Quebec,-69.0974,-68.9189,47.5898,47.7379
2413085,Saint-Elzar-de-Tmiscouata (M),Quebec,-69.1673,-68.9734,47.4842,47.6517
2413090,Saint-Honor-de-Tmiscouata (M),Quebec,-69.3331,-69.0435,47.5606,47.7665
2413095,Pohngamook (V),Quebec,-69.4536,-69.0774,47.4095,47.6263
2413100,Saint-Athanase (M),Quebec,-69.5886,-69.2759,47.2976,47.5263
2414005,Mont-Carmel (M),Quebec,-69.9097,-69.5025,47.1205,47.4728
2414010,Saint-Bruno-de-Kamouraska (M),Quebec,-69.8284,-69.5652,47.3668,47.5403
2414018,Saint-Pascal (V),Quebec,-69.8487,-69.7044,47.4703,47.5727
2414025,Sainte-Hlne-de-Kamouraska (M),Quebec,-69.7697,-69.6362,47.5099,47.6334
2414030,Saint-Joseph-de-Kamouraska (PE),Quebec,-69.6803,-69.5323,47.5249,47.6494
2414035,Saint-Alexandre-de-Kamouraska (M),Quebec,-69.6803,-69.4937,47.5962,47.737
2414040,Saint-Andr (M),Quebec,-69.8053,-69.6405,47.6112,47.9289
2414045,Saint-Germain (PE),Quebec,-69.8304,-69.7242,47.5599,47.6312
2414050,Kamouraska (M),Quebec,-69.9059,-69.798,47.4933,47.625
2414055,Saint-Denis-De La Bouteillerie (M),Quebec,-69.9852,-69.8726,47.4607,47.5368
2414060,Saint-Philippe-de-Nri (PE),Quebec,-69.9327,-69.8261,47.4262,47.5073
2414065,Rivire-Ouelle (M),Quebec,-70.0612,-69.9174,47.3931,47.5021
2414070,Saint-Pacme (M),Quebec,-69.9935,-69.8934,47.372,47.4479
2414075,Saint-Gabriel-Lalemant (M),Quebec,-69.9472,-69.7914,47.2994,47.4172
2414080,Saint-Onsime-d'Ixworth (M),Quebec,-70.0287,-69.8315,47.2234,47.369
2414085,La Pocatire (V),Quebec,-70.0776,-70.002,47.3416,47.4186
2414090,Sainte-Anne-de-la-Pocatire (PE),Quebec,-70.0971,-69.9405,47.2956,47.4004
2414902,Picard (NO),Quebec,-69.6852,-69.3045,47.1882,47.7178
2414904,Petit-Lac-Sainte-Anne (NO),Quebec,-69.8714,-69.5709,47.0668,47.2888
2415005,Saint-Irne (PE),Quebec,-70.3213,-70.1804,47.5084,47.6262
2415013,La Malbaie (V),Quebec,-70.3842,-69.9011,47.5916,47.8859
2415025,Notre-Dame-des-Monts (M),Quebec,-70.4862,-70.3601,47.6114,47.7225
2415030,Saint-Aim-des-Lacs (M),Quebec,-70.5072,-70.2434,47.6634,47.7682
2415035,Clermont (V),Quebec,-70.3417,-70.1745,47.6735,47.7591
2415058,Saint-Simon (M),Quebec,-70.0668,-69.7737,47.7845,47.9937
2415065,Baie-Sainte-Catherine (M),Quebec,-70.0013,-69.7063,47.9902,48.1816
2415902,Mont-lie (NO),Quebec,-70.5295,-70.0013,47.7168,48.0002
2415904,Sagard (NO),Quebec,-70.2643,-69.9567,47.9928,48.1247
2416005,Petite-Rivire-Saint-Franois (M),Quebec,-70.7111,-70.4967,47.2274,47.3972
2416013,Baie-Saint-Paul (V),Quebec,-70.8789,-70.4259,47.2582,47.531
2416023,L'Isle-aux-Coudres (M),Quebec,-70.4355,-70.3139,47.367,47.4277
2416048,Les boulements (M),Quebec,-70.4481,-70.2127,47.4367,47.569
2416050,Saint-Hilarion (PE),Quebec,-70.4949,-70.271,47.5254,47.6421
2416055,Saint-Urbain (PE),Quebec,-70.8177,-70.4205,47.5,47.7473
2416902,Lac-Pikauba (NO),Quebec,-71.4125,-70.5256,47.4317,48.0003
2417005,Saint-Omer (M),Quebec,-69.8267,-69.625,46.9926,47.1279
2417010,Saint-Pamphile (V),Quebec,-69.9127,-69.6976,46.8813,47.0419
2417015,Saint-Adalbert (M),Quebec,-70.0833,-69.8119,46.7333,46.9273
2417020,Saint-Marcel (M),Quebec,-70.2038,-69.9528,46.8199,46.9903
2417025,Sainte-Flicit (M),Quebec,-70.0397,-69.8524,46.9043,47.0198
2417030,Sainte-Perptue (M),Quebec,-70.0999,-69.7206,46.9657,47.1992
2417035,Tourville (M),Quebec,-70.1479,-69.833,47.0058,47.231
2417040,Saint-Damase-de-L'Islet (M),Quebec,-70.162,-69.8832,47.077,47.2914
2417045,Saint-Cyrille-de-Lessard (PE),Quebec,-70.343,-70.0767,46.9268,47.1192
2417055,Saint-Aubert (M),Quebec,-70.2774,-70.1156,47.0765,47.2347
2417060,Sainte-Louise (PE),Quebec,-70.1815,-70.003,47.2059,47.3239
2417065,Saint-Roch-des-Aulnaies (PE),Quebec,-70.2298,-70.0722,47.2359,47.3415
2417070,Saint-Jean-Port-Joli (M),Quebec,-70.4334,-70.1798,47.1272,47.268
2417078,L'Islet (M),Quebec,-70.4336,-70.2331,47.0161,47.1596
2418005,Saint-Just-de-Bretenires (M),Quebec,-70.1897,-70.0179,46.4642,46.6401
2418010,Lac-Frontire (M),Quebec,-70.0773,-69.9597,46.5984,46.7462
2418015,Saint-Fabien-de-Panet (PE),Quebec,-70.2824,-70.0286,46.5818,46.7578
2418020,Sainte-Lucie-de-Beauregard (M),Quebec,-70.1472,-69.9786,46.6935,46.8106
2418025,Sainte-Apolline-de-Patton (PE),Quebec,-70.3314,-70.0699,46.7245,46.9572
2418030,Saint-Paul-de-Montminy (M),Quebec,-70.4449,-70.1958,46.6579,46.8187
2418035,Sainte-Euphmie-sur-Rivire-du-Sud (M),Quebec,-70.5582,-70.371,46.7191,46.8574
2418040,Notre-Dame-du-Rosaire (M),Quebec,-70.5284,-70.2868,46.7788,46.943
2418045,Cap-Saint-Ignace (M),Quebec,-70.5189,-70.2434,46.8796,47.0793
2418050,Montmagny (V),Quebec,-70.6714,-70.427,46.8789,47.0017
2418055,Saint-Pierre-de-la-Rivire-du-Sud (PE),Quebec,-70.6918,-70.5076,46.8214,46.9551
2418060,Saint-Franois-de-la-Rivire-du-Sud (M),Quebec,-70.7712,-70.579,46.8021,46.9193
2418065,Berthier-sur-Mer (M),Quebec,-70.7949,-70.6706,46.8816,46.9571
2418070,Saint-Antoine-de-l'Isle-aux-Grues (PE),Quebec,-70.6831,-70.4213,47.0162,47.1708
2419005,Saint-Philmon (PE),Quebec,-70.5574,-70.3242,46.5759,46.7415
2419010,Notre-Dame-Auxiliatrice-de-Buckland (PE),Quebec,-70.6339,-70.4598,46.5499,46.6789
2419015,Saint-Nazaire-de-Dorchester (PE),Quebec,-70.7117,-70.58,46.5076,46.5969
2419020,Saint-Lon-de-Standon (PE),Quebec,-70.7235,-70.5285,46.3942,46.5484
2419025,Saint-Malachie (PE),Quebec,-70.8415,-70.6585,46.466,46.5993
2419030,Saint-Damien-de-Buckland (PE),Quebec,-70.744,-70.5627,46.5777,46.6876
2419037,Armagh (M),Quebec,-70.6777,-70.4745,46.6647,46.8356
2419045,Saint-Nre-de-Bellechasse (M),Quebec,-70.8005,-70.6225,46.6569,46.7576
2419050,Saint-Lazare-de-Bellechasse (M),Quebec,-70.8519,-70.6887,46.5822,46.6963
2419055,Sainte-Claire (M),Quebec,-70.961,-70.749,46.5134,46.624
2419062,Saint-Anselme (M),Quebec,-71.0611,-70.9125,46.5851,46.683
2419068,Saint-Henri (M),Quebec,-71.152,-70.9479,46.6239,46.7448
2419070,Honfleur (M),Quebec,-70.9436,-70.7985,46.6059,46.6854
2419075,Saint-Gervais (M),Quebec,-70.972,-70.7699,46.6617,46.7775
2419082,Saint-Raphal (M),Quebec,-70.8415,-70.6146,46.7294,46.8432
2419090,La Durantaye (PE),Quebec,-70.8971,-70.8086,46.7622,46.8602
2419097,Saint-Charles-de-Bellechasse (M),Quebec,-71.0317,-70.8618,46.6968,46.8347
2419105,Beaumont (M),Quebec,-71.0677,-70.922,46.7765,46.8552
2419110,Saint-Michel-de-Bellechasse (M),Quebec,-70.9512,-70.8368,46.8048,46.8943
2419117,Saint-Vallier (M),Quebec,-70.8604,-70.7525,46.8231,46.9165
2420005,Saint-Franois-de-l'le-d'Orlans (M),Quebec,-70.8985,-70.7125,46.9609,47.0247
2420010,Sainte-Famille (PE),Quebec,-71.0276,-70.8707,46.9093,47.0067
2420015,Saint-Jean-de-l'le-d'Orlans (M),Quebec,-70.9829,-70.8438,46.8952,46.9871
2420020,Saint-Laurent-de-l'le-d'Orlans (M),Quebec,-71.1073,-70.9555,46.8484,46.9168
2420025,Saint-Pierre-de-l'le-d'Orlans (M),Quebec,-71.1257,-70.9959,46.8586,46.9303
2420030,Sainte-Ptronille (VL),Quebec,-71.1415,-71.0921,46.8449,46.8682
2421005,Saint-Tite-des-Caps (M),Quebec,-70.8271,-70.6696,47.0817,47.2947
2421010,Saint-Ferrol-les-Neiges (M),Quebec,-70.9589,-70.7931,47.0666,47.2127
2421015,Saint-Louis-de-Gonzague-du-Cap-Tourmente (PE),Quebec,-70.8087,-70.801,47.0569,47.0662
2421020,Saint-Joachim (PE),Quebec,-70.89,-70.7495,47.0445,47.122
2421025,Beaupr (V),Quebec,-70.9547,-70.8641,47.033,47.11
2421030,Sainte-Anne-de-Beaupr (V),Quebec,-71.0298,-70.8973,47.0073,47.1163
2421035,Chteau-Richer (V),Quebec,-71.2675,-70.9602,46.9298,47.1954
2421040,L'Ange-Gardien (M),Quebec,-71.2057,-71.059,46.9016,46.998
2421045,Boischatel (M),Quebec,-71.1928,-71.1078,46.8853,46.9517
2421902,Sault-au-Cochon (NO),Quebec,-70.7736,-70.6191,47.0851,47.2428
2421904,Lac-Jacques-Cartier (NO),Quebec,-72.0739,-70.748,47.095,47.951
2422005,Sainte-Catherine-de-la-Jacques-Cartier (V),Quebec,-71.7336,-71.4921,46.7842,46.952
2422010,Fossambault-sur-le-Lac (V),Quebec,-71.6396,-71.5712,46.8624,46.9129
2422015,Lac-Saint-Joseph (V),Quebec,-71.7017,-71.5974,46.8755,46.9648
2422020,Shannon (M),Quebec,-71.6814,-71.4847,46.8544,46.9869
2422025,Saint-Gabriel-de-Valcartier (M),Quebec,-71.8146,-71.405,46.8732,47.1912
2422030,Lac-Delage (V),Quebec,-71.4158,-71.3917,46.9593,46.9781
2422035,Stoneham-et-Tewkesbury (CU),Quebec,-71.6445,-71.1725,46.9326,47.3073
2422040,Lac-Beauport (M),Quebec,-71.3646,-71.2235,46.9303,47.0334
2422045,Sainte-Brigitte-de-Laval (V),Quebec,-71.27,-71.086,46.9382,47.1042
2422902,Lac-Croche (NO),Quebec,-72.2384,-71.4126,47.1988,47.7726
2423015,Notre-Dame-des-Anges (PE),Quebec,-71.2351,-71.2312,46.8134,46.8152
2423027,Qubec (V),Quebec,-71.5494,-71.1426,46.7349,46.9819
2423057,L'Ancienne-Lorette (V),Quebec,-71.3816,-71.3346,46.7854,46.8226
2423072,Saint-Augustin-de-Desmaures (V),Quebec,-71.6063,-71.3662,46.7152,46.8026
2423802,Wendake (IRI),Quebec,-71.3736,-71.3495,46.8548,46.8819
2425213,Lvis (V),Quebec,-71.5017,-70.9939,46.5722,46.8328
2426005,Frampton (M),Quebec,-70.8981,-70.6888,46.3621,46.5284
2426010,Saints-Anges (PE),Quebec,-70.9537,-70.8012,46.3593,46.4763
2426015,Valle-Jonction (M),Quebec,-70.978,-70.8961,46.3388,46.4099
2426022,Saint-Elzar (M),Quebec,-71.1591,-70.9829,46.3451,46.4624
2426030,Sainte-Marie (V),Quebec,-71.0903,-70.9194,46.3699,46.5142
2426035,Sainte-Marguerite (PE),Quebec,-71.0179,-70.8367,46.4613,46.5588
2426040,Sainte-Hndine (PE),Quebec,-71.0545,-70.9009,46.5063,46.5937
2426048,Scott (M),Quebec,-71.1274,-71.0427,46.4636,46.5549
2426055,Saint-Bernard (M),Quebec,-71.2287,-71.0883,46.4178,46.5492
2426063,Saint-Isidore (M),Quebec,-71.1891,-70.9824,46.5263,46.6491
2426070,Saint-Lambert-de-Lauzon (M),Quebec,-71.3312,-71.1192,46.5287,46.6524
2427008,Saint-Victor (M),Quebec,-71.0134,-70.8303,46.0627,46.2138
2427015,Saint-Alfred (M),Quebec,-70.8762,-70.7589,46.1155,46.1964
2427028,Beauceville (V),Quebec,-70.8767,-70.6577,46.1188,46.3247
2427035,Saint-Odilon-de-Cranbourne (PE),Quebec,-70.7736,-70.5579,46.2787,46.4245
2427043,Saint-Joseph-de-Beauce (V),Quebec,-70.9241,-70.7267,46.2665,46.3931
2427050,Saint-Joseph-des-rables (M),Quebec,-70.9484,-70.8243,46.233,46.3545
2427055,Saint-Jules (PE),Quebec,-71.0199,-70.8575,46.1871,46.2676
2427060,Tring-Jonction (VL),Quebec,-71.0447,-70.942,46.2241,46.2865
2427065,Saint-Frdric (PE),Quebec,-71.0872,-70.9188,46.2518,46.3637
2427070,Saint-Sverin (PE),Quebec,-71.1464,-70.9649,46.2778,46.3734
2428005,Saint-Zacharie (M),Quebec,-70.4734,-70.2363,46.0265,46.1852
2428015,Sainte-Aurlie (M),Quebec,-70.4866,-70.2678,46.1198,46.2371
2428020,Saint-Prosper (M),Quebec,-70.5884,-70.3722,46.1443,46.2753
2428025,Saint-Benjamin (M),Quebec,-70.6731,-70.5052,46.1924,46.35
2428030,Sainte-Rose-de-Watford (M),Quebec,-70.5406,-70.3289,46.2496,46.37
2428035,Saint-Louis-de-Gonzague (M),Quebec,-70.4361,-70.2315,46.2126,46.3286
2428040,Saint-Cyprien (PE),Quebec,-70.3434,-70.1579,46.2912,46.4139
2428045,Sainte-Justine (M),Quebec,-70.4307,-70.236,46.345,46.4712
2428053,Lac-Etchemin (M),Quebec,-70.6219,-70.4013,46.3205,46.4785
2428060,Saint-Luc-de-Bellechasse (M),Quebec,-70.5821,-70.3862,46.4403,46.6106
2428065,Sainte-Sabine (PE),Quebec,-70.4145,-70.2713,46.4455,46.547
2428070,Saint-Camille-de-Lellis (PE),Quebec,-70.3211,-70.0465,46.359,46.5632
2428075,Saint-Magloire (M),Quebec,-70.4452,-70.163,46.5067,46.6767
2429005,Saint-Thophile (M),Quebec,-70.5851,-70.239,45.7889,46.0553
2429013,Saint-Gdon-de-Beauce (M),Quebec,-70.7311,-70.4996,45.7789,45.9152
2429020,Saint-Hilaire-de-Dorset (PE),Quebec,-70.8989,-70.7274,45.7801,45.9172
2429025,Saint-variste-de-Forsyth (M),Quebec,-71.1068,-70.8573,45.8908,46.0063
2429030,La Guadeloupe (VL),Quebec,-71.0046,-70.8977,45.9453,46.0163
2429038,Saint-Honor-de-Shenley (M),Quebec,-70.8989,-70.7291,45.9125,46.0352
2429045,Saint-Martin (PE),Quebec,-70.7311,-70.5606,45.8828,46.0474
2429050,Saint-Ren (PE),Quebec,-70.6406,-70.5419,45.9404,46.0771
2429057,Saint-Cme--Linire (M),Quebec,-70.6296,-70.3987,45.9781,46.1246
2429065,Saint-Philibert (M),Quebec,-70.6106,-70.4752,46.0943,46.1893
2429073,Saint-Georges (V),Quebec,-70.7758,-70.5671,45.9852,46.2104
2429095,Lac-Poulin (VL),Quebec,-70.8294,-70.8099,46.0895,46.1074
2429100,Saint-Benot-Labre (M),Quebec,-70.8593,-70.7276,46.0116,46.1351
2429112,Saint-phrem-de-Beauce (M),Quebec,-71.0252,-70.8527,45.9952,46.1159
2429120,Notre-Dame-des-Pins (PE),Quebec,-70.7562,-70.6739,46.1377,46.2123
2429125,Saint-Simon-les-Mines (M),Quebec,-70.7162,-70.6144,46.1562,46.2627
2430005,Saint-Augustin-de-Woburn (PE),Quebec,-70.9716,-70.6218,45.2286,45.4535
2430010,Notre-Dame-des-Bois (M),Quebec,-71.1323,-70.9688,45.2467,45.4617
2430015,Val-Racine (M),Quebec,-71.1603,-71.0123,45.4387,45.5652
2430020,Piopolis (M),Quebec,-71.0137,-70.8442,45.4265,45.5256
2430025,Frontenac (M),Quebec,-70.9112,-70.6754,45.453,45.6385
2430030,Lac-Mgantic (V),Quebec,-70.9439,-70.8443,45.5624,45.6182
2430035,Marston (CT),Quebec,-71.0538,-70.8825,45.5199,45.6067
2430040,Milan (M),Quebec,-71.2342,-71.0518,45.5227,45.656
2430045,Nantes (M),Quebec,-71.1093,-70.8932,45.5687,45.7013
2430050,Sainte-Ccile-de-Whitton (M),Quebec,-71.0527,-70.7978,45.6022,45.7584
2430055,Audet (M),Quebec,-70.8214,-70.5994,45.5728,45.7108
2430070,Saint-Robert-Bellarmin (M),Quebec,-70.6506,-70.384,45.6411,45.8271
2430072,Saint-Ludger (M),Quebec,-70.7828,-70.4058,45.628,45.8068
2430080,Lac-Drolet (M),Quebec,-70.9345,-70.7257,45.6581,45.7815
2430085,Saint-Sbastien (M),Quebec,-71.0449,-70.8926,45.7312,45.8508
2430090,Courcelles (M),Quebec,-71.0935,-70.8959,45.8353,45.9379
2430095,Lambton (M),Quebec,-71.1622,-70.9901,45.7878,45.9574
2430100,Saint-Romain (M),Quebec,-71.1616,-70.9868,45.6672,45.8404
2430105,Stornoway (M),Quebec,-71.3063,-71.0886,45.6387,45.8328
2430110,Stratford (CT),Quebec,-71.3927,-71.1786,45.7089,45.8703
2431008,Beaulac-Garthby (M),Quebec,-71.4679,-71.3387,45.7687,45.8979
2431015,Disraeli (V),Quebec,-71.3723,-71.3164,45.8766,45.9148
2431020,Disraeli (PE),Quebec,-71.4895,-71.2944,45.8503,45.9776
2431025,Saint-Jacques-le-Majeur-de-Wolfestown (PE),Quebec,-71.5593,-71.4339,45.8913,45.9817
2431030,Saint-Fortunat (M),Quebec,-71.6861,-71.5405,45.9065,46.0223
2431035,Saint-Julien (M),Quebec,-71.6287,-71.4129,45.9569,46.0666
2431040,Irlande (M),Quebec,-71.5831,-71.3936,45.9935,46.1323
2431045,Saint-Joseph-de-Coleraine (M),Quebec,-71.4424,-71.2216,45.9247,46.0436
2431050,Sainte-Praxde (PE),Quebec,-71.3184,-71.1368,45.8152,45.9701
2431056,Adstock (M),Quebec,-71.2568,-70.9886,45.9248,46.1749
2431060,Sainte-Clotilde-de-Beauce (M),Quebec,-71.105,-70.9701,46.0734,46.1682
2431084,Thetford Mines (V),Quebec,-71.4319,-71.1483,46.0203,46.2088
2431095,Saint-Adrien-d'Irlande (M),Quebec,-71.5151,-71.3624,46.0724,46.1563
2431100,Saint-Jean-de-Brbeuf (M),Quebec,-71.5339,-71.3474,46.114,46.2312
2431105,Kinnear's Mills (M),Quebec,-71.4278,-71.25,46.1466,46.2572
2431122,East Broughton (M),Quebec,-71.1087,-71.0541,46.2031,46.2433
2431130,Sacr-Coeur-de-Jsus (PE),Quebec,-71.1505,-70.979,46.1416,46.2877
2431135,Saint-Pierre-de-Broughton (M),Quebec,-71.3203,-71.0982,46.1664,46.3092
2431140,Saint-Jacques-de-Leeds (M),Quebec,-71.4133,-71.2464,46.2317,46.349
2432013,Saint-Ferdinand (M),Quebec,-71.713,-71.5097,46.0251,46.1858
2432023,Sainte-Sophie-d'Halifax (M),Quebec,-71.8171,-71.6319,46.0874,46.2243
2432033,Princeville (V),Quebec,-71.9861,-71.7988,46.0954,46.2991
2432040,Plessisville (V),Quebec,-71.7924,-71.7557,46.2071,46.2387
2432045,Plessisville (PE),Quebec,-71.8694,-71.656,46.1481,46.317
2432050,Saint-Pierre-Baptiste (PE),Quebec,-71.6808,-71.5228,46.1545,46.2659
2432058,Inverness (M),Quebec,-71.625,-71.3724,46.1631,46.3456
2432065,Lyster (M),Quebec,-71.742,-71.4785,46.3143,46.4526
2432072,Laurierville (M),Quebec,-71.787,-71.5898,46.2364,46.376
2432080,Notre-Dame-de-Lourdes (PE),Quebec,-71.8849,-71.7493,46.2483,46.3845
2432085,Villeroy (M),Quebec,-71.9746,-71.7885,46.3216,46.4508
2433007,Saint-Sylvestre (M),Quebec,-71.3362,-71.1006,46.3007,46.4245
2433017,Sainte-Agathe-de-Lotbinire (M),Quebec,-71.5425,-71.3141,46.2896,46.4435
2433025,Saint-Patrice-de-Beaurivage (M),Quebec,-71.3577,-71.1663,46.3766,46.4607
2433030,Saint-Narcisse-de-Beaurivage (PE),Quebec,-71.3304,-71.1918,46.4482,46.5468
2433035,Saint-Gilles (PE),Quebec,-71.4953,-71.2608,46.4118,46.6085
2433040,Dosquet (M),Quebec,-71.6175,-71.4522,46.4134,46.5205
2433045,Saint-Agapit (M),Quebec,-71.5281,-71.3737,46.4957,46.5963
2433052,Saint-Flavien (M),Quebec,-71.6701,-71.4907,46.484,46.5644
2433060,Laurier-Station (VL),Quebec,-71.6944,-71.5818,46.5334,46.553
2433065,Saint-Janvier-de-Joly (M),Quebec,-71.7763,-71.5833,46.4205,46.5598
2433070,Val-Alain (M),Quebec,-71.8575,-71.6702,46.3637,46.4955
2433080,Saint-douard-de-Lotbinire (PE),Quebec,-71.9196,-71.7206,46.5015,46.6082
2433085,Notre-Dame-du-Sacr-Coeur-d'Issoudun (PE),Quebec,-71.7502,-71.561,46.5378,46.6233
2433090,Saint-Apollinaire (M),Quebec,-71.5828,-71.3847,46.5524,46.6485
2433095,Saint-Antoine-de-Tilly (M),Quebec,-71.6471,-71.4445,46.6048,46.6887
2433102,Sainte-Croix (M),Quebec,-71.8557,-71.6253,46.5729,46.6704
2433115,Lotbinire (M),Quebec,-71.9979,-71.7952,46.5462,46.667
2433123,Leclercville (M),Quebec,-72.0375,-71.7671,46.4338,46.5783
2434007,Neuville (V),Quebec,-71.7108,-71.5229,46.6776,46.7642
2434017,Pont-Rouge (V),Quebec,-71.8042,-71.5531,46.7114,46.8437
2434025,Donnacona (V),Quebec,-71.7519,-71.6641,46.6674,46.7163
2434030,Cap-Sant (V),Quebec,-71.8687,-71.7141,46.6669,46.743
2434038,Saint-Basile (V),Quebec,-71.9326,-71.7147,46.7198,46.8371
2434048,Portneuf (V),Quebec,-72.1657,-71.8433,46.6793,46.933
2434058,Deschambault-Grondines (M),Quebec,-72.1468,-71.9022,46.5789,46.7195
2434060,Saint-Gilbert (PE),Quebec,-72.0577,-71.9556,46.684,46.7675
2434065,Saint-Marc-des-Carrires (V),Quebec,-72.08,-72.0014,46.6489,46.7021
2434078,Saint-Casimir (M),Quebec,-72.2474,-72.0679,46.6173,46.7164
2434085,Saint-Thuribe (PE),Quebec,-72.258,-72.1238,46.6763,46.766
2434090,Saint-Ubalde (M),Quebec,-72.3932,-72.1595,46.689,46.8555
2434097,Saint-Alban (M),Quebec,-72.2202,-72.0114,46.6848,46.8749
2434105,Sainte-Christine-d'Auvergne (M),Quebec,-72.1271,-71.8989,46.7531,46.9004
2434115,Saint-Lonard-de-Portneuf (M),Quebec,-72.1202,-71.8636,46.837,46.9951
2434120,Lac-Sergent (V),Quebec,-71.7416,-71.7068,46.854,46.8899
2434128,Saint-Raymond (V),Quebec,-72.1169,-71.6327,46.8059,47.1646
2434135,Rivire--Pierre (M),Quebec,-72.4362,-72.0533,46.8729,47.2141
2434902,Lac-Blanc (NO),Quebec,-72.1861,-71.6315,47.1123,47.4107
2434904,Linton (NO),Quebec,-72.2696,-71.8925,47.0629,47.3661
2434906,Lac-Lapeyrre (NO),Quebec,-72.5476,-72.2477,47.1017,47.4023
2435005,Notre-Dame-de-Montauban (M),Quebec,-72.4177,-72.1689,46.8145,47.0023
2435010,Lac-aux-Sables (PE),Quebec,-72.5656,-72.3191,46.7921,47.0584
2435015,Saint-Adelphe (PE),Quebec,-72.5059,-72.2867,46.6688,46.8211
2435020,Saint-Sverin (PE),Quebec,-72.5754,-72.4197,46.6075,46.7072
2435027,Saint-Tite (V),Quebec,-72.6508,-72.4761,46.6734,46.7888
2435035,Hrouxville (PE),Quebec,-72.682,-72.5515,46.6229,46.7253
2435040,Grandes-Piles (VL),Quebec,-72.7733,-72.588,46.6486,46.8291
2435045,Saint-Roch-de-Mkinac (PE),Quebec,-72.9095,-72.658,46.7427,46.8953
2435050,Sainte-Thcle (M),Quebec,-72.7153,-72.4312,46.746,46.9403
2435055,Trois-Rives (M),Quebec,-72.9391,-72.5171,46.8543,47.1829
2435902,Lac-Masketsi (NO),Quebec,-72.6333,-72.3715,46.9712,47.1837
2435904,Lac-Normand (NO),Quebec,-73.9565,-72.883,46.8296,47.4969
2435906,Rivire-de-la-Savane (NO),Quebec,-74.0285,-73.1437,46.8393,47.3887
2435908,Lac-Boul (NO),Quebec,-73.6749,-73.5814,46.8583,46.9276
2436033,Shawinigan (V),Quebec,-73.1791,-72.5834,46.4605,46.9197
2437067,Trois-Rivires (V),Quebec,-72.7779,-72.423,46.2773,46.4691
2437205,Sainte-Anne-de-la-Prade (M),Quebec,-72.3116,-72.1021,46.531,46.7176
2437210,Batiscan (M),Quebec,-72.3513,-72.2266,46.448,46.569
2437215,Sainte-Genevive-de-Batiscan (PE),Quebec,-72.4411,-72.2707,46.4858,46.598
2437220,Champlain (M),Quebec,-72.4696,-72.2756,46.4068,46.4933
